[
  {
    "id": "Q71279",
    "title": "Malbork Castle",
    "lat": 54.03972,
    "lon": 19.02778,
    "iso2": "PL",
    "kind": "unesco"
  },
  {
    "id": "Q138170",
    "title": "Tasmanian Wilderness",
    "lat": -42.5957,
    "lon": 146.1729,
    "iso2": "AU",
    "kind": "unesco"
  },
  {
    "id": "Q143042",
    "title": "Studenica monastery",
    "lat": 43.48672,
    "lon": 20.53164,
    "iso2": "RS",
    "kind": "unesco"
  },
  {
    "id": "Q156011",
    "title": "Ancient and Primeval Beech Forests of the Carpathians and Other Regions of Europe",
    "lat": 49,
    "lon": 15,
    "iso2": "IT",
    "kind": "unesco"
  },
  {
    "id": "Q106187",
    "title": "Giant's Causeway",
    "lat": 55.24083,
    "lon": -6.51167,
    "iso2": "GB",
    "kind": "unesco"
  },
  {
    "id": "Q122026",
    "title": "Zollverein Coal Mine Industrial Complex",
    "lat": 51.4865,
    "lon": 7.04408,
    "iso2": "DE",
    "kind": "unesco"
  },
  {
    "id": "Q162965",
    "title": "Palazzo Doria Tursi",
    "lat": 44.41133,
    "lon": 8.93281,
    "iso2": "IT",
    "kind": "unesco"
  },
  {
    "id": "Q133575",
    "title": "Cave of Altacosa",
    "lat": 43.37694,
    "lon": -4.11975,
    "iso2": "ES",
    "kind": "unesco"
  },
  {
    "id": "Q122082",
    "title": "Srebarna Nature Reserve",
    "lat": 44.11112,
    "lon": 27.07221,
    "iso2": "BG",
    "kind": "unesco"
  },
  {
    "id": "Q155699",
    "title": "Abbey of Saint Gall",
    "lat": 47.42306,
    "lon": 9.37722,
    "iso2": "CH",
    "kind": "unesco"
  },
  {
    "id": "Q180773",
    "title": "Susa",
    "lat": 32.18944,
    "lon": 48.25611,
    "iso2": "IR",
    "kind": "unesco"
  },
  {
    "id": "Q157550",
    "title": "Abbey and Altenmünster of Lorsch",
    "lat": 49.65389,
    "lon": 8.56889,
    "iso2": "DE",
    "kind": "unesco"
  },
  {
    "id": "Q118468",
    "title": "Land of Frankincense",
    "lat": 18.25333,
    "lon": 53.64759,
    "iso2": "OM",
    "kind": "unesco"
  },
  {
    "id": "Q134905",
    "title": "K'gari",
    "lat": -25.24,
    "lon": 153.15,
    "iso2": "AU",
    "kind": "unesco"
  },
  {
    "id": "Q172697",
    "title": "Marquesas Islands",
    "lat": -9,
    "lon": -139.5,
    "iso2": "FR",
    "kind": "unesco"
  },
  {
    "id": "Q155188",
    "title": "Rohtas Fort",
    "lat": 32.96528,
    "lon": 73.57642,
    "iso2": "PK",
    "kind": "unesco"
  },
  {
    "id": "Q93643",
    "title": "Hidden Christian Sites in the Nagasaki Region",
    "lat": 32.80222,
    "lon": 128.90389,
    "iso2": "JP",
    "kind": "unesco"
  },
  {
    "id": "Q106636",
    "title": "Bam",
    "lat": 29.10611,
    "lon": 58.35694,
    "iso2": "IR",
    "kind": "unesco"
  },
  {
    "id": "Q151963",
    "title": "Museum Island",
    "lat": 52.52139,
    "lon": 13.39556,
    "iso2": "DE",
    "kind": "unesco"
  },
  {
    "id": "Q72895",
    "title": "Canadian Rocky Mountain Parks World Heritage Site",
    "lat": 51.42472,
    "lon": -116.47972,
    "iso2": "CA",
    "kind": "unesco"
  },
  {
    "id": "Q138986",
    "title": "Zabid",
    "lat": 14.20217,
    "lon": 43.31833,
    "iso2": "YE",
    "kind": "unesco"
  },
  {
    "id": "Q157543",
    "title": "Dessau-Wörlitz Garden Realm",
    "lat": 51.8636,
    "lon": 12.2814,
    "iso2": "DE",
    "kind": "unesco"
  },
  {
    "id": "Q127754",
    "title": "Völklingen Ironworks",
    "lat": 49.25056,
    "lon": 6.84528,
    "iso2": "DE",
    "kind": "unesco"
  },
  {
    "id": "Q159070",
    "title": "White City",
    "lat": 32.07778,
    "lon": 34.77389,
    "iso2": "IL",
    "kind": "unesco"
  },
  {
    "id": "Q125445",
    "title": "Temple of Heaven",
    "lat": 39.8822,
    "lon": 116.4066,
    "iso2": "CN",
    "kind": "unesco"
  },
  {
    "id": "Q172077",
    "title": "Dome of the Rock",
    "lat": 31.77806,
    "lon": 35.23528,
    "iso2": "PS",
    "kind": "unesco"
  },
  {
    "id": "Q120730",
    "title": "Kyoto Prefecture",
    "lat": 35.02103,
    "lon": 135.75558,
    "iso2": "JP",
    "kind": "unesco"
  },
  {
    "id": "Q153430",
    "title": "Bryggen",
    "lat": 60.3975,
    "lon": 5.32333,
    "iso2": "NO",
    "kind": "unesco"
  },
  {
    "id": "Q179570",
    "title": "Kairouan",
    "lat": 35.68333,
    "lon": 10.1,
    "iso2": "TN",
    "kind": "unesco"
  },
  {
    "id": "Q178835",
    "title": "Baalbek",
    "lat": 34.00611,
    "lon": 36.20861,
    "iso2": "LB",
    "kind": "unesco"
  },
  {
    "id": "Q126084",
    "title": "Acre",
    "lat": 32.92611,
    "lon": 35.08389,
    "iso2": "IL",
    "kind": "unesco"
  },
  {
    "id": "Q173148",
    "title": "Delos",
    "lat": 37.39121,
    "lon": 25.27122,
    "iso2": "GR",
    "kind": "unesco"
  },
  {
    "id": "Q156292",
    "title": "Augustusburg and Falkenlust Palaces",
    "lat": 50.8275,
    "lon": 6.90806,
    "iso2": "DE",
    "kind": "unesco"
  },
  {
    "id": "Q173532",
    "title": "Byblos",
    "lat": 34.11667,
    "lon": 35.65,
    "iso2": "LB",
    "kind": "unesco"
  },
  {
    "id": "Q155743",
    "title": "Centennial Hall",
    "lat": 51.10694,
    "lon": 17.07722,
    "iso2": "PL",
    "kind": "unesco"
  },
  {
    "id": "Q115253",
    "title": "Takht-e Soleyman",
    "lat": 36.60472,
    "lon": 47.23417,
    "iso2": "IR",
    "kind": "unesco"
  },
  {
    "id": "Q120314",
    "title": "Mount Wutai",
    "lat": 39.08139,
    "lon": 113.56694,
    "iso2": "CN",
    "kind": "unesco"
  },
  {
    "id": "Q107370",
    "title": "Thingvellir National Park",
    "lat": 64.25806,
    "lon": -21.125,
    "iso2": "IS",
    "kind": "unesco"
  },
  {
    "id": "Q118618",
    "title": "Herrenchiemsee",
    "lat": 47.86043,
    "lon": 12.4022,
    "iso2": "DE",
    "kind": "unesco"
  },
  {
    "id": "Q152225",
    "title": "Bikini Atoll",
    "lat": 11.6,
    "lon": 165.4,
    "iso2": "MH",
    "kind": "unesco"
  },
  {
    "id": "Q101583",
    "title": "Thebes",
    "lat": 25.72056,
    "lon": 32.61028,
    "iso2": "EG",
    "kind": "unesco"
  },
  {
    "id": "Q180402",
    "title": "Yosemite National Park",
    "lat": 37.7425,
    "lon": -119.5375,
    "iso2": "US",
    "kind": "unesco"
  },
  {
    "id": "Q134873",
    "title": "Capital Cities and Tombs of the Ancient Koguryo Kingdom",
    "lat": 41.15694,
    "lon": 126.18722,
    "iso2": "CN",
    "kind": "unesco"
  },
  {
    "id": "Q157886",
    "title": "Maulbronn Monastery",
    "lat": 49.0011,
    "lon": 8.8129,
    "iso2": "DE",
    "kind": "unesco"
  },
  {
    "id": "Q156722",
    "title": "Altes Museum",
    "lat": 52.51944,
    "lon": 13.39889,
    "iso2": "DE",
    "kind": "unesco"
  },
  {
    "id": "Q130025",
    "title": "Ciudad Universitaria",
    "lat": 19.33222,
    "lon": -99.18806,
    "iso2": "MX",
    "kind": "unesco"
  },
  {
    "id": "Q179046",
    "title": "Fatehpur Sikri",
    "lat": 27.09111,
    "lon": 77.66111,
    "iso2": "IN",
    "kind": "unesco"
  },
  {
    "id": "Q155727",
    "title": "Fort and Shalamar Gardens in Lahore",
    "lat": 31.59028,
    "lon": 74.30972,
    "iso2": "PK",
    "kind": "unesco"
  },
  {
    "id": "Q174139",
    "title": "Iwami Ginzan Silver Mine",
    "lat": 35.10722,
    "lon": 132.4375,
    "iso2": "JP",
    "kind": "unesco"
  },
  {
    "id": "Q131198",
    "title": "Heard Island and McDonald Islands",
    "lat": -53.09353,
    "lon": 73.517,
    "iso2": "AU",
    "kind": "unesco"
  },
  {
    "id": "Q66485",
    "title": "Jaipur",
    "lat": 26.915,
    "lon": 75.82,
    "iso2": "IN",
    "kind": "unesco"
  },
  {
    "id": "Q181427",
    "title": "Palenque",
    "lat": 17.48417,
    "lon": -92.04639,
    "iso2": "MX",
    "kind": "unesco"
  },
  {
    "id": "Q162835",
    "title": "Trans-Iranian Railway",
    "lat": 35.65831,
    "lon": 51.39833,
    "iso2": "IR",
    "kind": "unesco"
  },
  {
    "id": "Q178124",
    "title": "Surtsey",
    "lat": 63.30403,
    "lon": -20.60471,
    "iso2": "IS",
    "kind": "unesco"
  },
  {
    "id": "Q99372",
    "title": "lifts on the old Canal du Centre",
    "lat": 50.4714,
    "lon": 4.0945,
    "iso2": "BE",
    "kind": "unesco"
  },
  {
    "id": "Q131416",
    "title": "Derbent",
    "lat": 42.05778,
    "lon": 48.28889,
    "iso2": "RU",
    "kind": "unesco"
  },
  {
    "id": "Q151545",
    "title": "Wartburg",
    "lat": 50.96611,
    "lon": 10.30639,
    "iso2": "DE",
    "kind": "unesco"
  },
  {
    "id": "Q179506",
    "title": "Tierradentro",
    "lat": 2.583,
    "lon": -76.033,
    "iso2": "CO",
    "kind": "unesco"
  },
  {
    "id": "Q156439",
    "title": "Reichenau Island",
    "lat": 47.69306,
    "lon": 9.06306,
    "iso2": "DE",
    "kind": "unesco"
  },
  {
    "id": "Q158822",
    "title": "Pontcysyllte Aqueduct",
    "lat": 52.9702,
    "lon": -3.08782,
    "iso2": "GB",
    "kind": "unesco"
  },
  {
    "id": "Q181123",
    "title": "Sanchi",
    "lat": 23.47944,
    "lon": 77.73972,
    "iso2": "IN",
    "kind": "unesco"
  },
  {
    "id": "Q179883",
    "title": "Aeolian Islands",
    "lat": 38.49667,
    "lon": 14.93583,
    "iso2": "IT",
    "kind": "unesco"
  },
  {
    "id": "Q156675",
    "title": "Wieskirche",
    "lat": 47.68333,
    "lon": 10.9,
    "iso2": "DE",
    "kind": "unesco"
  },
  {
    "id": "Q174779",
    "title": "Batalha Monastery",
    "lat": 39.65917,
    "lon": -8.82611,
    "iso2": "PT",
    "kind": "unesco"
  },
  {
    "id": "Q180274",
    "title": "Notre-Dame de Chartres",
    "lat": 48.44778,
    "lon": 1.48778,
    "iso2": "FR",
    "kind": "unesco"
  },
  {
    "id": "Q162052",
    "title": "Linderhof Palace",
    "lat": 47.57162,
    "lon": 10.96075,
    "iso2": "DE",
    "kind": "unesco"
  },
  {
    "id": "Q156093",
    "title": "Taxila",
    "lat": 33.74583,
    "lon": 72.7875,
    "iso2": "PK",
    "kind": "unesco"
  },
  {
    "id": "Q155495",
    "title": "Golden Mountains of Altai",
    "lat": 50.46667,
    "lon": 86,
    "iso2": "RU",
    "kind": "unesco"
  },
  {
    "id": "Q157603",
    "title": "Pantanal",
    "lat": -17.4,
    "lon": -57.5,
    "iso2": "BR",
    "kind": "unesco"
  },
  {
    "id": "Q156067",
    "title": "Residence of Bukovinian and Dalmatian Metropolitans",
    "lat": 48.29664,
    "lon": 25.92491,
    "iso2": "UA",
    "kind": "unesco"
  },
  {
    "id": "Q129072",
    "title": "Persepolis",
    "lat": 29.935,
    "lon": 52.89,
    "iso2": "IR",
    "kind": "unesco"
  },
  {
    "id": "Q156308",
    "title": "Muskau Park",
    "lat": 51.54756,
    "lon": 14.72323,
    "iso2": "PL",
    "kind": "unesco"
  },
  {
    "id": "Q166479",
    "title": "St Kilda",
    "lat": 57.815,
    "lon": -8.5875,
    "iso2": "GB",
    "kind": "unesco"
  },
  {
    "id": "Q106934",
    "title": "Notre-Dame d'Amiens",
    "lat": 49.89457,
    "lon": 2.3021,
    "iso2": "FR",
    "kind": "unesco"
  },
  {
    "id": "Q131013",
    "title": "Acropolis of Athens",
    "lat": 37.97167,
    "lon": 23.72611,
    "iso2": "GR",
    "kind": "unesco"
  },
  {
    "id": "Q170047",
    "title": "Samarra",
    "lat": 34.1959,
    "lon": 43.88568,
    "iso2": "IQ",
    "kind": "unesco"
  },
  {
    "id": "Q172613",
    "title": "Teotihuacan",
    "lat": 19.6925,
    "lon": -98.84389,
    "iso2": "MX",
    "kind": "unesco"
  },
  {
    "id": "Q171857",
    "title": "Agra Fort",
    "lat": 27.17958,
    "lon": 78.0213,
    "iso2": "IN",
    "kind": "unesco"
  },
  {
    "id": "Q223385",
    "title": "Cueva de las Manos",
    "lat": -47.15,
    "lon": -70.66667,
    "iso2": "AR",
    "kind": "unesco"
  },
  {
    "id": "Q211778",
    "title": "Lake District",
    "lat": 54.5,
    "lon": -3.16667,
    "iso2": "GB",
    "kind": "unesco"
  },
  {
    "id": "Q215315",
    "title": "Kernavė",
    "lat": 54.88333,
    "lon": 24.85,
    "iso2": "LT",
    "kind": "unesco"
  },
  {
    "id": "Q239028",
    "title": "Stoclet Palace",
    "lat": 50.83514,
    "lon": 4.41625,
    "iso2": "BE",
    "kind": "unesco"
  },
  {
    "id": "Q190128",
    "title": "Ha Long Bay",
    "lat": 20.9,
    "lon": 107.2,
    "iso2": "VN",
    "kind": "unesco"
  },
  {
    "id": "Q203197",
    "title": "Kandy",
    "lat": 7.29306,
    "lon": 80.635,
    "iso2": "LK",
    "kind": "unesco"
  },
  {
    "id": "Q207193",
    "title": "Skellig Michael",
    "lat": 51.77111,
    "lon": -10.54056,
    "iso2": "IE",
    "kind": "unesco"
  },
  {
    "id": "Q215897",
    "title": "Castel del Monte",
    "lat": 41.08475,
    "lon": 16.27093,
    "iso2": "IT",
    "kind": "unesco"
  },
  {
    "id": "Q192243",
    "title": "Struve Geodetic Arc",
    "lat": 52.28944,
    "lon": 25.64944,
    "iso2": "LV",
    "kind": "unesco"
  },
  {
    "id": "Q215429",
    "title": "Grand-Place",
    "lat": 50.84671,
    "lon": 4.35254,
    "iso2": "BE",
    "kind": "unesco"
  },
  {
    "id": "Q239748",
    "title": "Sammallahdenmäki",
    "lat": 61.11767,
    "lon": 21.77517,
    "iso2": "FI",
    "kind": "unesco"
  },
  {
    "id": "Q194504",
    "title": "Church of the Nativity",
    "lat": 31.70431,
    "lon": 35.20758,
    "iso2": "PS",
    "kind": "unesco"
  },
  {
    "id": "Q205711",
    "title": "Solovetsky Islands",
    "lat": 65.02444,
    "lon": 35.71056,
    "iso2": "RU",
    "kind": "unesco"
  },
  {
    "id": "Q192201",
    "title": "Wachau",
    "lat": 48.36444,
    "lon": 15.43417,
    "iso2": "AT",
    "kind": "unesco"
  },
  {
    "id": "Q210610",
    "title": "Golestan Palace",
    "lat": 35.67972,
    "lon": 51.42028,
    "iso2": "IR",
    "kind": "unesco"
  },
  {
    "id": "Q214827",
    "title": "Copán",
    "lat": 14.83796,
    "lon": -89.14244,
    "iso2": "HN",
    "kind": "unesco"
  },
  {
    "id": "Q208559",
    "title": "Drottningholm Palace",
    "lat": 59.32169,
    "lon": 17.88638,
    "iso2": "SE",
    "kind": "unesco"
  },
  {
    "id": "Q192518",
    "title": "Shibam",
    "lat": 15.92694,
    "lon": 48.62667,
    "iso2": "YE",
    "kind": "unesco"
  },
  {
    "id": "Q200521",
    "title": "Brimstone Hill Fortress National Park",
    "lat": 17.34744,
    "lon": -62.83575,
    "iso2": "KN",
    "kind": "unesco"
  },
  {
    "id": "Q837627",
    "title": "Castles and Town Walls of King Edward in Gwynedd",
    "lat": 53.13972,
    "lon": -4.27694,
    "iso2": "GB",
    "kind": "unesco"
  },
  {
    "id": "Q210957",
    "title": "Antonine Wall",
    "lat": 55.967,
    "lon": -4.067,
    "iso2": "GB",
    "kind": "unesco"
  },
  {
    "id": "Q256160",
    "title": "King's House on Schachen",
    "lat": 47.4197,
    "lon": 11.11259,
    "iso2": "DE",
    "kind": "unesco"
  },
  {
    "id": "Q208633",
    "title": "Ponte Vecchio",
    "lat": 43.76799,
    "lon": 11.25319,
    "iso2": "IT",
    "kind": "unesco"
  },
  {
    "id": "Q216243",
    "title": "Nalanda Mahavihara",
    "lat": 25.1368,
    "lon": 85.44383,
    "iso2": "IN",
    "kind": "unesco"
  },
  {
    "id": "Q242176",
    "title": "Yakushima",
    "lat": 30.35861,
    "lon": 130.52861,
    "iso2": "JP",
    "kind": "unesco"
  },
  {
    "id": "Q257598",
    "title": "Gros Morne National Park",
    "lat": 49.68944,
    "lon": -57.73806,
    "iso2": "CA",
    "kind": "unesco"
  },
  {
    "id": "Q217447",
    "title": "Verla",
    "lat": 61.06199,
    "lon": 26.64002,
    "iso2": "FI",
    "kind": "unesco"
  },
  {
    "id": "Q206219",
    "title": "Imperial Citadel of Thang Long",
    "lat": 21.0325,
    "lon": 105.83972,
    "iso2": "VN",
    "kind": "unesco"
  },
  {
    "id": "Q235004",
    "title": "Q235004",
    "lat": 17.57472,
    "lon": 120.38694,
    "iso2": "PH",
    "kind": "unesco"
  },
  {
    "id": "Q191763",
    "title": "Itsukushima Shrine",
    "lat": 34.29577,
    "lon": 132.32011,
    "iso2": "JP",
    "kind": "unesco"
  },
  {
    "id": "Q209643",
    "title": "Mir Castle Complex",
    "lat": 53.45127,
    "lon": 26.47289,
    "iso2": "BY",
    "kind": "unesco"
  },
  {
    "id": "Q200200",
    "title": "Assur",
    "lat": 35.45667,
    "lon": 43.2625,
    "iso2": "IQ",
    "kind": "unesco"
  },
  {
    "id": "Q201428",
    "title": "Palace of Fontainebleau",
    "lat": 48.40222,
    "lon": 2.70056,
    "iso2": "FR",
    "kind": "unesco"
  },
  {
    "id": "Q206236",
    "title": "Citadel of Erbil",
    "lat": 36.191,
    "lon": 44.009,
    "iso2": "IQ",
    "kind": "unesco"
  },
  {
    "id": "Q251999",
    "title": "Uluṟu-Kata Tjuṯa National Park",
    "lat": -25.32208,
    "lon": 130.98573,
    "iso2": "AU",
    "kind": "unesco"
  },
  {
    "id": "Q199234",
    "title": "Cordouan Lighthouse",
    "lat": 45.58632,
    "lon": -1.17333,
    "iso2": "FR",
    "kind": "unesco"
  },
  {
    "id": "Q223589",
    "title": "Virunga National Park",
    "lat": -0.5,
    "lon": 29.5,
    "iso2": "CD",
    "kind": "unesco"
  },
  {
    "id": "Q209217",
    "title": "Great Zimbabwe",
    "lat": -20.27,
    "lon": 30.933,
    "iso2": "ZW",
    "kind": "unesco"
  },
  {
    "id": "Q202845",
    "title": "Tongariro National Park",
    "lat": -39.2,
    "lon": 175.58333,
    "iso2": "NZ",
    "kind": "unesco"
  },
  {
    "id": "Q205367",
    "title": "Château de Chambord",
    "lat": 47.61611,
    "lon": 1.51722,
    "iso2": "FR",
    "kind": "unesco"
  },
  {
    "id": "Q235884",
    "title": "Chhatrapati Shivaji Maharaj Terminus",
    "lat": 18.9398,
    "lon": 72.8355,
    "iso2": "IN",
    "kind": "unesco"
  },
  {
    "id": "Q242681",
    "title": "Mammoth Cave National Park",
    "lat": 37.18694,
    "lon": -86.10111,
    "iso2": "US",
    "kind": "unesco"
  },
  {
    "id": "Q205952",
    "title": "Hawaiʻi Volcanoes National Park",
    "lat": 19.40083,
    "lon": -155.12361,
    "iso2": "US",
    "kind": "unesco"
  },
  {
    "id": "Q207985",
    "title": "Bourges Cathedral",
    "lat": 47.08222,
    "lon": 2.39917,
    "iso2": "FR",
    "kind": "unesco"
  },
  {
    "id": "Q244347",
    "title": "Gorée",
    "lat": 14.66694,
    "lon": -17.39833,
    "iso2": "SN",
    "kind": "unesco"
  },
  {
    "id": "Q210055",
    "title": "Mehmed Paša Sokolović Bridge",
    "lat": 43.78248,
    "lon": 19.28794,
    "iso2": "BA",
    "kind": "unesco"
  },
  {
    "id": "Q192764",
    "title": "Kaziranga National Park",
    "lat": 26.66667,
    "lon": 93.35,
    "iso2": "IN",
    "kind": "unesco"
  },
  {
    "id": "Q192493",
    "title": "Robben Island",
    "lat": -33.805,
    "lon": 18.37,
    "iso2": "ZA",
    "kind": "unesco"
  },
  {
    "id": "Q253241",
    "title": "Su Nuraxi di Barumini",
    "lat": 39.70286,
    "lon": 8.99988,
    "iso2": "IT",
    "kind": "unesco"
  },
  {
    "id": "Q213237",
    "title": "Valdes Peninsula",
    "lat": -42.5,
    "lon": -63.93333,
    "iso2": "AR",
    "kind": "unesco"
  },
  {
    "id": "Q245151",
    "title": "Tower of Hercules",
    "lat": 43.38583,
    "lon": -8.40639,
    "iso2": "ES",
    "kind": "unesco"
  },
  {
    "id": "Q207692",
    "title": "Wuyi Mountains",
    "lat": 27.71667,
    "lon": 117.68333,
    "iso2": "CN",
    "kind": "unesco"
  },
  {
    "id": "Q208181",
    "title": "Blenheim Palace",
    "lat": 51.84136,
    "lon": -1.36095,
    "iso2": "GB",
    "kind": "unesco"
  },
  {
    "id": "Q191504",
    "title": "Leptis Magna",
    "lat": 32.63833,
    "lon": 14.2905,
    "iso2": "LY",
    "kind": "unesco"
  },
  {
    "id": "Q237128",
    "title": "Mesa Verde National Park",
    "lat": 37.26038,
    "lon": -108.49444,
    "iso2": "US",
    "kind": "unesco"
  },
  {
    "id": "Q193325",
    "title": "Merv",
    "lat": 37.66278,
    "lon": 62.1925,
    "iso2": "TM",
    "kind": "unesco"
  },
  {
    "id": "Q235878",
    "title": "Kevladev National Park",
    "lat": 27.16667,
    "lon": 77.51667,
    "iso2": "IN",
    "kind": "unesco"
  },
  {
    "id": "Q214944",
    "title": "Göbekli Tepe",
    "lat": 37.22306,
    "lon": 38.9225,
    "iso2": "TR",
    "kind": "unesco"
  },
  {
    "id": "Q210678",
    "title": "Urnes Stave Church",
    "lat": 61.29806,
    "lon": 7.3225,
    "iso2": "NO",
    "kind": "unesco"
  },
  {
    "id": "Q211252",
    "title": "Madinat Al-Zahra",
    "lat": 37.88608,
    "lon": -4.86779,
    "iso2": "ES",
    "kind": "unesco"
  },
  {
    "id": "Q231140",
    "title": "Hiroshima Peace Memorial",
    "lat": 34.39556,
    "lon": 132.45361,
    "iso2": "JP",
    "kind": "unesco"
  },
  {
    "id": "Q216059",
    "title": "Mount Tai",
    "lat": 36.26667,
    "lon": 117.1,
    "iso2": "CN",
    "kind": "unesco"
  },
  {
    "id": "Q214007",
    "title": "Tsodilo",
    "lat": -18.77167,
    "lon": 21.75417,
    "iso2": "BW",
    "kind": "unesco"
  },
  {
    "id": "Q219279",
    "title": "Caral",
    "lat": -10.89361,
    "lon": -77.52028,
    "iso2": "PE",
    "kind": "unesco"
  },
  {
    "id": "Q212214",
    "title": "Amalfi Coast",
    "lat": 40.63333,
    "lon": 14.6,
    "iso2": "IT",
    "kind": "unesco"
  },
  {
    "id": "Q220289",
    "title": "Grand Canyon National Park",
    "lat": 36.0553,
    "lon": -112.122,
    "iso2": "US",
    "kind": "unesco"
  },
  {
    "id": "Q220951",
    "title": "Church of the Ascension, Kolomenskoye",
    "lat": 55.66722,
    "lon": 37.67083,
    "iso2": "RU",
    "kind": "unesco"
  },
  {
    "id": "Q190165",
    "title": "Luang Prabang",
    "lat": 19.89,
    "lon": 102.13472,
    "iso2": "LA",
    "kind": "unesco"
  },
  {
    "id": "Q206194",
    "title": "Citadelle Laferrière",
    "lat": 19.57361,
    "lon": -72.24389,
    "iso2": "HT",
    "kind": "unesco"
  },
  {
    "id": "Q193241",
    "title": "Nesebar",
    "lat": 42.65951,
    "lon": 27.72472,
    "iso2": "BG",
    "kind": "unesco"
  },
  {
    "id": "Q192666",
    "title": "Białowieża Forest",
    "lat": 52.75,
    "lon": 23.95,
    "iso2": "PL",
    "kind": "unesco"
  },
  {
    "id": "Q834893",
    "title": "Kinabalu Park",
    "lat": 6.15,
    "lon": 116.65,
    "iso2": "MY",
    "kind": "unesco"
  },
  {
    "id": "Q190060",
    "title": "Citadel of the Hồ Dynasty",
    "lat": 20.07806,
    "lon": 105.60472,
    "iso2": "VN",
    "kind": "unesco"
  },
  {
    "id": "Q244952",
    "title": "Santa Maria delle Grazie",
    "lat": 45.46583,
    "lon": 9.17111,
    "iso2": "IT",
    "kind": "unesco"
  },
  {
    "id": "Q207917",
    "title": "Mount Nemrut",
    "lat": 37.98074,
    "lon": 38.74083,
    "iso2": "TR",
    "kind": "unesco"
  },
  {
    "id": "Q202494",
    "title": "Canal du Midi",
    "lat": 43.61111,
    "lon": 1.41833,
    "iso2": "FR",
    "kind": "unesco"
  },
  {
    "id": "Q205558",
    "title": "Spiš Castle",
    "lat": 49.00056,
    "lon": 20.76833,
    "iso2": "SK",
    "kind": "unesco"
  },
  {
    "id": "Q211962",
    "title": "Trinity Lavra of St. Sergius",
    "lat": 56.31035,
    "lon": 38.13065,
    "iso2": "RU",
    "kind": "unesco"
  },
  {
    "id": "Q252814",
    "title": "Taos Pueblo",
    "lat": 36.43889,
    "lon": -105.54167,
    "iso2": "US",
    "kind": "unesco"
  },
  {
    "id": "Q241074",
    "title": "Rocas Atoll",
    "lat": -3.86639,
    "lon": -33.80194,
    "iso2": "BR",
    "kind": "unesco"
  },
  {
    "id": "Q217449",
    "title": "Val d'Orcia",
    "lat": 43.06667,
    "lon": 11.55,
    "iso2": "IT",
    "kind": "unesco"
  },
  {
    "id": "Q487070",
    "title": "Dessau",
    "lat": 51.83417,
    "lon": 12.24611,
    "iso2": "DE",
    "kind": "unesco"
  },
  {
    "id": "Q215992",
    "title": "Los Glaciares National Park",
    "lat": -50,
    "lon": -73,
    "iso2": "AR",
    "kind": "unesco"
  },
  {
    "id": "Q192522",
    "title": "Çatalhöyük",
    "lat": 37.6675,
    "lon": 32.82833,
    "iso2": "TR",
    "kind": "unesco"
  },
  {
    "id": "Q240832",
    "title": "Ninstints",
    "lat": 52.09889,
    "lon": -131.2175,
    "iso2": "CA",
    "kind": "unesco"
  },
  {
    "id": "Q213988",
    "title": "Skogskyrkogården",
    "lat": 59.27556,
    "lon": 18.09944,
    "iso2": "SE",
    "kind": "unesco"
  },
  {
    "id": "Q209705",
    "title": "Roskilde Cathedral",
    "lat": 55.64267,
    "lon": 12.08031,
    "iso2": "DK",
    "kind": "unesco"
  },
  {
    "id": "Q230025",
    "title": "Pasargadae",
    "lat": 30.2,
    "lon": 53.17944,
    "iso2": "IR",
    "kind": "unesco"
  },
  {
    "id": "Q696803",
    "title": "Las Médulas",
    "lat": 42.4587,
    "lon": -6.759,
    "iso2": "ES",
    "kind": "unesco"
  },
  {
    "id": "Q752181",
    "title": "Río Plátano Biosphere Reserve",
    "lat": 15.25,
    "lon": -84.73,
    "iso2": "HN",
    "kind": "unesco"
  },
  {
    "id": "Q696193",
    "title": "Ecbatana",
    "lat": 34.8065,
    "lon": 48.51625,
    "iso2": "IR",
    "kind": "unesco"
  },
  {
    "id": "Q784656",
    "title": "Aachen Chapel of Hungary",
    "lat": 50.77475,
    "lon": 6.08392,
    "iso2": "DE",
    "kind": "unesco"
  },
  {
    "id": "Q742315",
    "title": "Iguaçu National Park",
    "lat": -25.5,
    "lon": -53.8,
    "iso2": "BR",
    "kind": "unesco"
  },
  {
    "id": "Q748211",
    "title": "Old Town",
    "lat": 50.0847,
    "lon": 14.4203,
    "iso2": "CZ",
    "kind": "unesco"
  },
  {
    "id": "Q787425",
    "title": "Papahānaumokuākea Marine National Monument",
    "lat": 25.7,
    "lon": -171.73333,
    "iso2": "US",
    "kind": "unesco"
  },
  {
    "id": "Q750248",
    "title": "Royal Monastery of Saint Mary of Guadalupe",
    "lat": 39.45278,
    "lon": -5.3275,
    "iso2": "ES",
    "kind": "unesco"
  },
  {
    "id": "Q732708",
    "title": "Paleochristian and Byzantine monuments of Thessaloniki",
    "lat": 40.6386,
    "lon": 22.9478,
    "iso2": "GR",
    "kind": "unesco"
  },
  {
    "id": "Q679114",
    "title": "Abbey of Reichenau",
    "lat": 47.69874,
    "lon": 9.06208,
    "iso2": "DE",
    "kind": "unesco"
  },
  {
    "id": "Q828291",
    "title": "Los Alerces National Park",
    "lat": -42.8075,
    "lon": -71.89889,
    "iso2": "AR",
    "kind": "unesco"
  },
  {
    "id": "Q732554",
    "title": "Chavin de Huantar",
    "lat": -9.59277,
    "lon": -77.17845,
    "iso2": "PE",
    "kind": "unesco"
  },
  {
    "id": "Q705132",
    "title": "Arslantepe",
    "lat": 38.38194,
    "lon": 38.36111,
    "iso2": "TR",
    "kind": "unesco"
  },
  {
    "id": "Q817164",
    "title": "Imperial Tombs of the Ming and Qing Dynasties",
    "lat": 31.01667,
    "lon": 112.65,
    "iso2": "CN",
    "kind": "unesco"
  },
  {
    "id": "Q828417",
    "title": "Old Rauma",
    "lat": 61.12827,
    "lon": 21.51321,
    "iso2": "FI",
    "kind": "unesco"
  },
  {
    "id": "Q808563",
    "title": "Baroque Churches of the Philippines",
    "lat": 10.64191,
    "lon": 122.23549,
    "iso2": "PH",
    "kind": "unesco"
  },
  {
    "id": "Q746063",
    "title": "Villa d'Este",
    "lat": 41.9625,
    "lon": 12.79611,
    "iso2": "IT",
    "kind": "unesco"
  },
  {
    "id": "Q824602",
    "title": "Puerto Princesa River",
    "lat": 10.16667,
    "lon": 118.91667,
    "iso2": "PH",
    "kind": "unesco"
  },
  {
    "id": "Q738716",
    "title": "Kenozyorsky National Park",
    "lat": 62.05,
    "lon": 38.1,
    "iso2": "RU",
    "kind": "unesco"
  },
  {
    "id": "Q692174",
    "title": "San Basilio de Palenque",
    "lat": 10.10332,
    "lon": -75.19901,
    "iso2": "CO",
    "kind": "unesco"
  },
  {
    "id": "Q695229",
    "title": "Great Living Chola Temples",
    "lat": 10.78306,
    "lon": 79.1325,
    "iso2": "IN",
    "kind": "unesco"
  },
  {
    "id": "Q741636",
    "title": "Coiba",
    "lat": 7.48,
    "lon": -81.79,
    "iso2": "PA",
    "kind": "unesco"
  },
  {
    "id": "Q753721",
    "title": "Modena Cathedral",
    "lat": 44.64644,
    "lon": 10.92525,
    "iso2": "IT",
    "kind": "unesco"
  },
  {
    "id": "Q726842",
    "title": "Crespi d'Adda",
    "lat": 45.59667,
    "lon": 9.53611,
    "iso2": "IT",
    "kind": "unesco"
  },
  {
    "id": "Q705054",
    "title": "Douaumont ossuary",
    "lat": 49.20826,
    "lon": 5.42367,
    "iso2": "FR",
    "kind": "unesco"
  },
  {
    "id": "Q757067",
    "title": "Saint John Abbey",
    "lat": 46.62917,
    "lon": 10.44778,
    "iso2": "CH",
    "kind": "unesco"
  },
  {
    "id": "Q718001",
    "title": "Fujian Tulou",
    "lat": 24.6587,
    "lon": 116.975,
    "iso2": "CN",
    "kind": "unesco"
  },
  {
    "id": "Q826452",
    "title": "Holašovice",
    "lat": 48.96667,
    "lon": 14.26667,
    "iso2": "CZ",
    "kind": "unesco"
  },
  {
    "id": "Q753162",
    "title": "Sacri Monti of Piedmont and Lombardy",
    "lat": 45.97456,
    "lon": 9.16956,
    "iso2": "IT",
    "kind": "unesco"
  },
  {
    "id": "Q665878",
    "title": "Alminhas da Ponte",
    "lat": 41.14075,
    "lon": -8.61086,
    "iso2": "PT",
    "kind": "unesco"
  },
  {
    "id": "Q799893",
    "title": "Mosque City of Bagerhat",
    "lat": 22.66097,
    "lon": 89.75855,
    "iso2": "BD",
    "kind": "unesco"
  },
  {
    "id": "Q755514",
    "title": "Hypogeum of Ħal Saflieni",
    "lat": 35.86956,
    "lon": 14.50688,
    "iso2": "MT",
    "kind": "unesco"
  },
  {
    "id": "Q756790",
    "title": "Kilimanjaro National Park",
    "lat": -3.06667,
    "lon": 37.36667,
    "iso2": "TZ",
    "kind": "unesco"
  },
  {
    "id": "Q794643",
    "title": "Aïr and Ténéré National Nature Reserve",
    "lat": 18,
    "lon": 9,
    "iso2": "NE",
    "kind": "unesco"
  },
  {
    "id": "Q677879",
    "title": "Neolithic flint mines of Spiennes",
    "lat": 50.41999,
    "lon": 3.98258,
    "iso2": "BE",
    "kind": "unesco"
  },
  {
    "id": "Q822842",
    "title": "Umm ar-Rasas",
    "lat": 31.49972,
    "lon": 35.91972,
    "iso2": "JO",
    "kind": "unesco"
  },
  {
    "id": "Q680322",
    "title": "Qalhat",
    "lat": 22.7,
    "lon": 59.3699,
    "iso2": "OM",
    "kind": "unesco"
  },
  {
    "id": "Q828412",
    "title": "wooden churches of Maramureș",
    "lat": 47.8194,
    "lon": 24.0558,
    "iso2": "RO",
    "kind": "unesco"
  },
  {
    "id": "Q828212",
    "title": "Waterton-Glacier International Peace Park",
    "lat": 48.99606,
    "lon": -113.90417,
    "iso2": "US",
    "kind": "unesco"
  },
  {
    "id": "Q683110",
    "title": "Head-Smashed-In Buffalo Jump",
    "lat": 49.7494,
    "lon": -113.625,
    "iso2": "CA",
    "kind": "unesco"
  },
  {
    "id": "Q817250",
    "title": "Pattadakal Group of Monuments",
    "lat": 15.94833,
    "lon": 75.81667,
    "iso2": "IN",
    "kind": "unesco"
  },
  {
    "id": "Q687973",
    "title": "Old City of Bern",
    "lat": 46.94806,
    "lon": 7.45028,
    "iso2": "CH",
    "kind": "unesco"
  },
  {
    "id": "Q733676",
    "title": "Djoudj National Bird Sanctuary",
    "lat": 16.45,
    "lon": -16.2,
    "iso2": "SN",
    "kind": "unesco"
  },
  {
    "id": "Q751146",
    "title": "Franciscan Missions in the Sierra Gorda",
    "lat": 21.20389,
    "lon": -99.46389,
    "iso2": "MX",
    "kind": "unesco"
  },
  {
    "id": "Q650710",
    "title": "Noel Kempff Mercado National Park",
    "lat": -14.23028,
    "lon": -60.84667,
    "iso2": "BO",
    "kind": "unesco"
  },
  {
    "id": "Q735278",
    "title": "Lednice-Valtice Cultural Landscape",
    "lat": 48.7758,
    "lon": 16.775,
    "iso2": "CZ",
    "kind": "unesco"
  },
  {
    "id": "Q726803",
    "title": "Tallinn Old Town",
    "lat": 59.43722,
    "lon": 24.74528,
    "iso2": "EE",
    "kind": "unesco"
  },
  {
    "id": "Q688060",
    "title": "Lavaux",
    "lat": 46.49194,
    "lon": 6.74611,
    "iso2": "CH",
    "kind": "unesco"
  },
  {
    "id": "Q747875",
    "title": "Willandra Lakes Region",
    "lat": -33.61814,
    "lon": 143.10141,
    "iso2": "AU",
    "kind": "unesco"
  },
  {
    "id": "Q740288",
    "title": "Santa Cruz de Mompós",
    "lat": 9.23944,
    "lon": -74.425,
    "iso2": "CO",
    "kind": "unesco"
  },
  {
    "id": "Q729327",
    "title": "Dacian Fortresses of the Orăștie Mountains",
    "lat": 45.6231,
    "lon": 23.3119,
    "iso2": "RO",
    "kind": "unesco"
  },
  {
    "id": "Q752318",
    "title": "Pilgrimage Church of Saint John of Nepomuk",
    "lat": 49.58,
    "lon": 15.94194,
    "iso2": "CZ",
    "kind": "unesco"
  },
  {
    "id": "Q650531",
    "title": "Thracian Tomb of Sveshtari",
    "lat": 43.74496,
    "lon": 26.7663,
    "iso2": "BG",
    "kind": "unesco"
  },
  {
    "id": "Q804881",
    "title": "Bale Mountains National Park",
    "lat": 6.66667,
    "lon": 39.6667,
    "iso2": "ET",
    "kind": "unesco"
  },
  {
    "id": "Q750675",
    "title": "Belfries of Belgium and France",
    "lat": 50.63527,
    "lon": 3.51484,
    "iso2": "FR",
    "kind": "unesco"
  },
  {
    "id": "Q767128",
    "title": "Dasht-e Lut",
    "lat": 30.26389,
    "lon": 59.24111,
    "iso2": "IR",
    "kind": "unesco"
  },
  {
    "id": "Q652634",
    "title": "Kraków Old Town",
    "lat": 50.06209,
    "lon": 19.93688,
    "iso2": "PL",
    "kind": "unesco"
  },
  {
    "id": "Q702477",
    "title": "Babelsberg Palace",
    "lat": 52.4076,
    "lon": 13.0933,
    "iso2": "DE",
    "kind": "unesco"
  },
  {
    "id": "Q733069",
    "title": "Horezu monastery",
    "lat": 45.1686,
    "lon": 24.0069,
    "iso2": "RO",
    "kind": "unesco"
  },
  {
    "id": "Q828071",
    "title": "Ilulissat Icefjord",
    "lat": 69.169,
    "lon": -50.3,
    "iso2": "GL",
    "kind": "unesco"
  },
  {
    "id": "Q797120",
    "title": "Xochicalco",
    "lat": 18.80431,
    "lon": -99.29664,
    "iso2": "MX",
    "kind": "unesco"
  },
  {
    "id": "Q736692",
    "title": "Convent of Christ",
    "lat": 39.60364,
    "lon": -8.41926,
    "iso2": "PT",
    "kind": "unesco"
  },
  {
    "id": "Q679568",
    "title": "Purnululu National Park",
    "lat": -17.44879,
    "lon": 128.54605,
    "iso2": "AU",
    "kind": "unesco"
  },
  {
    "id": "Q689454",
    "title": "Danevirke",
    "lat": 54.4775,
    "lon": 9.48667,
    "iso2": "DE",
    "kind": "unesco"
  },
  {
    "id": "Q650546",
    "title": "Bandiagara Escarpment",
    "lat": 14.41667,
    "lon": -3.31667,
    "iso2": "ML",
    "kind": "unesco"
  },
  {
    "id": "Q677973",
    "title": "Pfaueninsel",
    "lat": 52.43444,
    "lon": 13.13083,
    "iso2": "DE",
    "kind": "unesco"
  },
  {
    "id": "Q662102",
    "title": "Casbah of Algiers",
    "lat": 36.78333,
    "lon": 3.06028,
    "iso2": "DZ",
    "kind": "unesco"
  },
  {
    "id": "Q650872",
    "title": "Okavango Delta",
    "lat": -19.4,
    "lon": 22.9,
    "iso2": "BW",
    "kind": "unesco"
  },
  {
    "id": "Q752091",
    "title": "Konark Sun Temple",
    "lat": 19.88744,
    "lon": 86.0946,
    "iso2": "IN",
    "kind": "unesco"
  },
  {
    "id": "Q742362",
    "title": "Holy Trinity Column in Olomouc",
    "lat": 49.59402,
    "lon": 17.25049,
    "iso2": "CZ",
    "kind": "unesco"
  },
  {
    "id": "Q651278",
    "title": "Dazu Rock Carvings",
    "lat": 29.71333,
    "lon": 105.70694,
    "iso2": "CN",
    "kind": "unesco"
  },
  {
    "id": "Q775154",
    "title": "Area de Conservación Guanacaste World Heritage Site",
    "lat": 10.85,
    "lon": -85.61667,
    "iso2": "CR",
    "kind": "unesco"
  },
  {
    "id": "Q753895",
    "title": "Tajín Veracruz",
    "lat": 20.44806,
    "lon": -97.37824,
    "iso2": "MX",
    "kind": "unesco"
  },
  {
    "id": "Q743108",
    "title": "New Lanark",
    "lat": 55.66361,
    "lon": -3.78139,
    "iso2": "GB",
    "kind": "unesco"
  },
  {
    "id": "Q740104",
    "title": "Qal’at al Bahrain",
    "lat": 26.23361,
    "lon": 50.52056,
    "iso2": "BH",
    "kind": "unesco"
  },
  {
    "id": "Q753383",
    "title": "Megalithic Temples of Malta",
    "lat": 36.04917,
    "lon": 14.26944,
    "iso2": "MT",
    "kind": "unesco"
  },
  {
    "id": "Q744420",
    "title": "Burgos Cathedral",
    "lat": 42.34081,
    "lon": -3.70447,
    "iso2": "ES",
    "kind": "unesco"
  },
  {
    "id": "Q754791",
    "title": "Twyfelfontein",
    "lat": -20.59558,
    "lon": 14.37258,
    "iso2": "NA",
    "kind": "unesco"
  },
  {
    "id": "Q750245",
    "title": "Piazza del Duomo, Pisa",
    "lat": 43.72343,
    "lon": 10.39478,
    "iso2": "IT",
    "kind": "unesco"
  },
  {
    "id": "Q651314",
    "title": "Pirin National Park",
    "lat": 41.67222,
    "lon": 23.48778,
    "iso2": "BG",
    "kind": "unesco"
  },
  {
    "id": "Q677659",
    "title": "Maison Carrée",
    "lat": 43.83819,
    "lon": 4.35611,
    "iso2": "FR",
    "kind": "unesco"
  },
  {
    "id": "Q715124",
    "title": "Teide National Park",
    "lat": 28.27646,
    "lon": -16.64267,
    "iso2": "ES",
    "kind": "unesco"
  },
  {
    "id": "Q813418",
    "title": "Beaumont-Hamel Newfoundland Memorial",
    "lat": 50.07384,
    "lon": 2.64823,
    "iso2": "FR",
    "kind": "unesco"
  },
  {
    "id": "Q724484",
    "title": "M'zab",
    "lat": 32.48722,
    "lon": 3.68139,
    "iso2": "DZ",
    "kind": "unesco"
  },
  {
    "id": "Q750190",
    "title": "Sulaiman-Too",
    "lat": 40.52944,
    "lon": 72.78333,
    "iso2": "KG",
    "kind": "unesco"
  },
  {
    "id": "Q778743",
    "title": "Forts and Castles, Volta, Greater Accra, Central and Western Regions",
    "lat": 5.10369,
    "lon": -1.241,
    "iso2": "GH",
    "kind": "unesco"
  },
  {
    "id": "Q685476",
    "title": "Fagus Factory",
    "lat": 51.9837,
    "lon": 9.81256,
    "iso2": "DE",
    "kind": "unesco"
  },
  {
    "id": "Q738657",
    "title": "Saint-Savin",
    "lat": 46.56611,
    "lon": 0.86361,
    "iso2": "FR",
    "kind": "unesco"
  },
  {
    "id": "Q679891",
    "title": "Niokolo-Koba National Park",
    "lat": 13.07417,
    "lon": -12.72222,
    "iso2": "SN",
    "kind": "unesco"
  },
  {
    "id": "Q685357",
    "title": "Port Royal",
    "lat": 17.9375,
    "lon": -76.84139,
    "iso2": "JM",
    "kind": "unesco"
  },
  {
    "id": "Q649738",
    "title": "Alto Douro Wine Region",
    "lat": 41.21145,
    "lon": -7.54422,
    "iso2": "PT",
    "kind": "unesco"
  },
  {
    "id": "Q575398",
    "title": "Te Wahipounamu",
    "lat": -45.036,
    "lon": 167.32,
    "iso2": "NZ",
    "kind": "unesco"
  },
  {
    "id": "Q593147",
    "title": "Alcobaça Monastery",
    "lat": 39.54833,
    "lon": -8.98,
    "iso2": "PT",
    "kind": "unesco"
  },
  {
    "id": "Q636714",
    "title": "Archaeological Landscape of the First Coffee Plantations in the South-East of Cuba",
    "lat": 20.03,
    "lon": -75.3914,
    "iso2": "CU",
    "kind": "unesco"
  },
  {
    "id": "Q552005",
    "title": "Rock Paintings of Sierra de San Francisco",
    "lat": 27.65556,
    "lon": -112.91611,
    "iso2": "MX",
    "kind": "unesco"
  },
  {
    "id": "Q587584",
    "title": "Stonehenge, Avebury and Associated Sites",
    "lat": 51.1789,
    "lon": -1.82528,
    "iso2": "GB",
    "kind": "unesco"
  },
  {
    "id": "Q503835",
    "title": "Manovo-Gounda St. Floris National Park",
    "lat": 8.5,
    "lon": 21.5,
    "iso2": "CF",
    "kind": "unesco"
  },
  {
    "id": "Q508040",
    "title": "Koutammakou",
    "lat": 10.1,
    "lon": 1.06667,
    "iso2": "BJ",
    "kind": "unesco"
  },
  {
    "id": "Q572895",
    "title": "Humberstone and Santa Laura Saltpeter Works",
    "lat": -20.20833,
    "lon": -69.79444,
    "iso2": "CL",
    "kind": "unesco"
  },
  {
    "id": "Q543419",
    "title": "iron pillar of Delhi",
    "lat": 28.52466,
    "lon": 77.18507,
    "iso2": "IN",
    "kind": "unesco"
  },
  {
    "id": "Q642979",
    "title": "Monolithic churches in Lalibela",
    "lat": 12.02935,
    "lon": 39.04042,
    "iso2": "ET",
    "kind": "unesco"
  },
  {
    "id": "Q510279",
    "title": "Three Castles of Bellinzona",
    "lat": 46.19278,
    "lon": 9.02222,
    "iso2": "CH",
    "kind": "unesco"
  },
  {
    "id": "Q629210",
    "title": "Garrison Historic Area",
    "lat": 13.09667,
    "lon": -59.61389,
    "iso2": "BB",
    "kind": "unesco"
  },
  {
    "id": "Q564321",
    "title": "Rainforests of the Atsinanana",
    "lat": -14.45972,
    "lon": 49.7025,
    "iso2": "MG",
    "kind": "unesco"
  },
  {
    "id": "Q599223",
    "title": "Palace of Mafra",
    "lat": 38.93692,
    "lon": -9.32639,
    "iso2": "PT",
    "kind": "unesco"
  },
  {
    "id": "Q598892",
    "title": "Padova botanical garden",
    "lat": 45.39953,
    "lon": 11.88068,
    "iso2": "IT",
    "kind": "unesco"
  },
  {
    "id": "Q508634",
    "title": "Jantar Mantar",
    "lat": 26.92472,
    "lon": 75.825,
    "iso2": "IN",
    "kind": "unesco"
  },
  {
    "id": "Q621498",
    "title": "Osun-Osogbo Grove",
    "lat": 7.75556,
    "lon": 4.55222,
    "iso2": "NG",
    "kind": "unesco"
  },
  {
    "id": "Q495733",
    "title": "Jeju Volcanic Island and Lava Tubes",
    "lat": 33.36139,
    "lon": 126.5325,
    "iso2": "KR",
    "kind": "unesco"
  },
  {
    "id": "Q500376",
    "title": "Škocjan Caves",
    "lat": 45.665,
    "lon": 13.99472,
    "iso2": "SI",
    "kind": "unesco"
  },
  {
    "id": "Q604604",
    "title": "Kluane / Wrangell – St. Elias / Glacier Bay / Tatshenshini-Alsek",
    "lat": 61.1975,
    "lon": -140.992,
    "iso2": "US",
    "kind": "unesco"
  },
  {
    "id": "Q495276",
    "title": "Royal Tombs of the Joseon Dynasty",
    "lat": 37.19722,
    "lon": 128.45278,
    "iso2": "KR",
    "kind": "unesco"
  },
  {
    "id": "Q505617",
    "title": "Villa Romana del Casale",
    "lat": 37.36472,
    "lon": 14.33455,
    "iso2": "IT",
    "kind": "unesco"
  },
  {
    "id": "Q500367",
    "title": "Beni Hammad Fort",
    "lat": 35.81389,
    "lon": 4.79333,
    "iso2": "DZ",
    "kind": "unesco"
  },
  {
    "id": "Q638162",
    "title": "Wörlitzer Park",
    "lat": 51.8481,
    "lon": 12.4233,
    "iso2": "DE",
    "kind": "unesco"
  },
  {
    "id": "Q608100",
    "title": "Medina of Sousse",
    "lat": 35.8278,
    "lon": 10.6386,
    "iso2": "TN",
    "kind": "unesco"
  },
  {
    "id": "Q547375",
    "title": "Lakes of Ounianga",
    "lat": 18.98333,
    "lon": 20.66667,
    "iso2": "TD",
    "kind": "unesco"
  },
  {
    "id": "Q503387",
    "title": "Rock-hewn Churches of Ivanovo",
    "lat": 43.69556,
    "lon": 25.98806,
    "iso2": "BG",
    "kind": "unesco"
  },
  {
    "id": "Q502518",
    "title": "Ruins of Gedi",
    "lat": -3.30917,
    "lon": 40.01667,
    "iso2": "KE",
    "kind": "unesco"
  },
  {
    "id": "Q614212",
    "title": "Stari Grad Plain",
    "lat": 43.18167,
    "lon": 16.63861,
    "iso2": "HR",
    "kind": "unesco"
  },
  {
    "id": "Q564199",
    "title": "Church of the Redeemer",
    "lat": 52.42464,
    "lon": 13.09647,
    "iso2": "DE",
    "kind": "unesco"
  },
  {
    "id": "Q622865",
    "title": "Hollókő",
    "lat": 47.99611,
    "lon": 19.59167,
    "iso2": "HU",
    "kind": "unesco"
  },
  {
    "id": "Q631128",
    "title": "Miguasha National Park",
    "lat": 48.11056,
    "lon": -66.36944,
    "iso2": "CA",
    "kind": "unesco"
  },
  {
    "id": "Q588417",
    "title": "Sewell",
    "lat": -34.085,
    "lon": -70.3825,
    "iso2": "CL",
    "kind": "unesco"
  },
  {
    "id": "Q611345",
    "title": "Sacred Sites and Pilgrimage Routes in the Kii Mountain Range",
    "lat": 33.83694,
    "lon": 135.77639,
    "iso2": "JP",
    "kind": "unesco"
  },
  {
    "id": "Q513893",
    "title": "Teruel Cathedral",
    "lat": 40.3439,
    "lon": -1.10722,
    "iso2": "ES",
    "kind": "unesco"
  },
  {
    "id": "Q629902",
    "title": "Sichuan Giant Panda Sanctuaries",
    "lat": 30.83333,
    "lon": 103,
    "iso2": "CN",
    "kind": "unesco"
  },
  {
    "id": "Q606763",
    "title": "Gonbad-e Qabus",
    "lat": 37.25812,
    "lon": 55.16899,
    "iso2": "IR",
    "kind": "unesco"
  },
  {
    "id": "Q495286",
    "title": "Gochang, Hwasun and Ganghwa Dolmen Sites",
    "lat": 34.96667,
    "lon": 126.92917,
    "iso2": "KR",
    "kind": "unesco"
  },
  {
    "id": "Q499517",
    "title": "Qasr Amra",
    "lat": 31.80175,
    "lon": 36.58731,
    "iso2": "JO",
    "kind": "unesco"
  },
  {
    "id": "Q608090",
    "title": "Caves of Aggtelek Karst and Slovak Karst",
    "lat": 48.47178,
    "lon": 20.49532,
    "iso2": "SK",
    "kind": "unesco"
  },
  {
    "id": "Q552106",
    "title": "Prehistoric Rock Art Sites in the Côa Valley",
    "lat": 41.03333,
    "lon": -7.11667,
    "iso2": "PT",
    "kind": "unesco"
  },
  {
    "id": "Q616578",
    "title": "Historic Centre of Saint Petersburg and Related Groups of Monuments",
    "lat": 59.93889,
    "lon": 30.31556,
    "iso2": "RU",
    "kind": "unesco"
  },
  {
    "id": "Q616912",
    "title": "Jungfrau-Aletsch protected area",
    "lat": 46.5,
    "lon": 8.03333,
    "iso2": "CH",
    "kind": "unesco"
  },
  {
    "id": "Q603622",
    "title": "Qazan Kremlin",
    "lat": 55.79744,
    "lon": 49.10724,
    "iso2": "RU",
    "kind": "unesco"
  },
  {
    "id": "Q581641",
    "title": "Divriği Great Mosque and Hospital",
    "lat": 39.37122,
    "lon": 38.12158,
    "iso2": "TR",
    "kind": "unesco"
  },
  {
    "id": "Q495501",
    "title": "Mount Kumgang",
    "lat": 38.65676,
    "lon": 128.1049,
    "iso2": "KP",
    "kind": "unesco"
  },
  {
    "id": "Q532440",
    "title": "Sundarbans National Park",
    "lat": 21.75,
    "lon": 88.75,
    "iso2": "IN",
    "kind": "unesco"
  },
  {
    "id": "Q559363",
    "title": "Saloum Delta",
    "lat": 13.83528,
    "lon": -16.49861,
    "iso2": "SN",
    "kind": "unesco"
  },
  {
    "id": "Q572953",
    "title": "Vladslo German war cemetery",
    "lat": 51.07056,
    "lon": 2.92944,
    "iso2": "BE",
    "kind": "unesco"
  },
  {
    "id": "Q636194",
    "title": "Falun Mine",
    "lat": 60.60472,
    "lon": 15.63083,
    "iso2": "SE",
    "kind": "unesco"
  },
  {
    "id": "Q501638",
    "title": "Shirakami-Sanchi",
    "lat": 40.47,
    "lon": 140.13,
    "iso2": "JP",
    "kind": "unesco"
  },
  {
    "id": "Q555360",
    "title": "Mazagan",
    "lat": 33.25656,
    "lon": -8.50248,
    "iso2": "MA",
    "kind": "unesco"
  },
  {
    "id": "Q490798",
    "title": "Haeinsa Temple Janggyeong Panjeon, the Depositories for the Tripitaka Koreana Woodblocks",
    "lat": 35.8,
    "lon": 128.1,
    "iso2": "KR",
    "kind": "unesco"
  },
  {
    "id": "Q588009",
    "title": "Llotja de la Seda",
    "lat": 39.47444,
    "lon": -0.37833,
    "iso2": "ES",
    "kind": "unesco"
  },
  {
    "id": "Q559789",
    "title": "Sian Ka'an",
    "lat": 19.38333,
    "lon": -87.79167,
    "iso2": "MX",
    "kind": "unesco"
  },
  {
    "id": "Q584125",
    "title": "Ban Chiang",
    "lat": 17.54861,
    "lon": 103.35833,
    "iso2": "TH",
    "kind": "unesco"
  },
  {
    "id": "Q546010",
    "title": "Ani",
    "lat": 40.5075,
    "lon": 43.57278,
    "iso2": "TR",
    "kind": "unesco"
  },
  {
    "id": "Q575035",
    "title": "Three Parallel Rivers National Park",
    "lat": 27.895,
    "lon": 98.40639,
    "iso2": "CN",
    "kind": "unesco"
  },
  {
    "id": "Q625586",
    "title": "Sosu Seowon",
    "lat": 36.92556,
    "lon": 128.58,
    "iso2": "KR",
    "kind": "unesco"
  },
  {
    "id": "Q500189",
    "title": "M'banza-Kongo",
    "lat": -6.26667,
    "lon": 14.25,
    "iso2": "AO",
    "kind": "unesco"
  },
  {
    "id": "Q629238",
    "title": "Shiretoko Peninsula",
    "lat": 44,
    "lon": 145,
    "iso2": "JP",
    "kind": "unesco"
  },
  {
    "id": "Q574879",
    "title": "Medici Villas and Gardens in Tuscany",
    "lat": 43.85778,
    "lon": 11.30417,
    "iso2": "IT",
    "kind": "unesco"
  },
  {
    "id": "Q595802",
    "title": "Museum Plantin-Moretus",
    "lat": 51.21829,
    "lon": 4.39816,
    "iso2": "BE",
    "kind": "unesco"
  },
  {
    "id": "Q569766",
    "title": "Shahrisabz",
    "lat": 39.05,
    "lon": 66.83333,
    "iso2": "UZ",
    "kind": "unesco"
  },
  {
    "id": "Q490497",
    "title": "Jongmyo",
    "lat": 37.57472,
    "lon": 126.99361,
    "iso2": "KR",
    "kind": "unesco"
  },
  {
    "id": "Q542854",
    "title": "Gordion",
    "lat": 39.65048,
    "lon": 31.97848,
    "iso2": "TR",
    "kind": "unesco"
  },
  {
    "id": "Q503823",
    "title": "Tomb of Askia",
    "lat": 16.28972,
    "lon": -0.04444,
    "iso2": "ML",
    "kind": "unesco"
  },
  {
    "id": "Q501344",
    "title": "Comoé National Park",
    "lat": 8.8225,
    "lon": -3.59056,
    "iso2": "CI",
    "kind": "unesco"
  },
  {
    "id": "Q562529",
    "title": "Namhansanseong",
    "lat": 37.47803,
    "lon": 127.18419,
    "iso2": "KR",
    "kind": "unesco"
  },
  {
    "id": "Q540237",
    "title": "Fountains Abbey",
    "lat": 54.1097,
    "lon": -1.58139,
    "iso2": "GB",
    "kind": "unesco"
  },
  {
    "id": "Q636774",
    "title": "Valle dei Templi",
    "lat": 37.28972,
    "lon": 13.59,
    "iso2": "IT",
    "kind": "unesco"
  },
  {
    "id": "Q539518",
    "title": "Banc d'Arguin National Park",
    "lat": 20.23472,
    "lon": -16.10889,
    "iso2": "MR",
    "kind": "unesco"
  },
  {
    "id": "Q500397",
    "title": "Bwindi Impenetrable National Park",
    "lat": -1.05,
    "lon": 29.71667,
    "iso2": "UG",
    "kind": "unesco"
  },
  {
    "id": "Q506511",
    "title": "Manas National Park",
    "lat": 26.71667,
    "lon": 90.93333,
    "iso2": "IN",
    "kind": "unesco"
  },
  {
    "id": "Q535577",
    "title": "Itchan Kala",
    "lat": 41.37772,
    "lon": 60.35948,
    "iso2": "UZ",
    "kind": "unesco"
  },
  {
    "id": "Q593870",
    "title": "Virgin Komi Forests",
    "lat": 65.06667,
    "lon": 60.15,
    "iso2": "RU",
    "kind": "unesco"
  },
  {
    "id": "Q501833",
    "title": "Wadi Al-Hitan",
    "lat": 29.27083,
    "lon": 30.04389,
    "iso2": "EG",
    "kind": "unesco"
  },
  {
    "id": "Q495241",
    "title": "Gyeongju Historic Areas",
    "lat": 35.78889,
    "lon": 129.22667,
    "iso2": "KR",
    "kind": "unesco"
  },
  {
    "id": "Q573656",
    "title": "Schwerin Castle",
    "lat": 53.62417,
    "lon": 11.41889,
    "iso2": "DE",
    "kind": "unesco"
  },
  {
    "id": "Q639217",
    "title": "Messel pit",
    "lat": 49.9175,
    "lon": 8.75667,
    "iso2": "DE",
    "kind": "unesco"
  },
  {
    "id": "Q575976",
    "title": "Jurassic Coast",
    "lat": 50.70556,
    "lon": -2.98989,
    "iso2": "GB",
    "kind": "unesco"
  },
  {
    "id": "Q557337",
    "title": "Alcázar of Segovia",
    "lat": 40.9525,
    "lon": -4.1325,
    "iso2": "ES",
    "kind": "unesco"
  },
  {
    "id": "Q573558",
    "title": "Vallée de Mai",
    "lat": -4.32917,
    "lon": 55.7375,
    "iso2": "SC",
    "kind": "unesco"
  },
  {
    "id": "Q639487",
    "title": "Pitons",
    "lat": 13.80708,
    "lon": -61.07036,
    "iso2": "LC",
    "kind": "unesco"
  },
  {
    "id": "Q504315",
    "title": "Simien Mountains National Park",
    "lat": 13.18333,
    "lon": 38.06667,
    "iso2": "ET",
    "kind": "unesco"
  },
  {
    "id": "Q629436",
    "title": "Morne Trois Pitons National Park",
    "lat": 15.26667,
    "lon": -61.28333,
    "iso2": "DM",
    "kind": "unesco"
  },
  {
    "id": "Q605897",
    "title": "Valley of Flowers National Park",
    "lat": 30.73,
    "lon": 79.6175,
    "iso2": "IN",
    "kind": "unesco"
  },
  {
    "id": "Q499242",
    "title": "Etna Park",
    "lat": 37.76528,
    "lon": 15,
    "iso2": "IT",
    "kind": "unesco"
  },
  {
    "id": "Q499552",
    "title": "Zhoukoudian site",
    "lat": 39.68896,
    "lon": 115.92483,
    "iso2": "CN",
    "kind": "unesco"
  },
  {
    "id": "Q589634",
    "title": "Churches of Peace",
    "lat": 51.05391,
    "lon": 16.18904,
    "iso2": "PL",
    "kind": "unesco"
  },
  {
    "id": "Q308893",
    "title": "Garamba National Park",
    "lat": 4.19559,
    "lon": 29.48093,
    "iso2": "CD",
    "kind": "unesco"
  },
  {
    "id": "Q328488",
    "title": "Salonga National Park",
    "lat": -1.76516,
    "lon": 21.49723,
    "iso2": "CD",
    "kind": "unesco"
  },
  {
    "id": "Q331099",
    "title": "Island of Mozambique",
    "lat": -15.03667,
    "lon": 40.73278,
    "iso2": "MZ",
    "kind": "unesco"
  },
  {
    "id": "Q309426",
    "title": "Kasubi Tombs",
    "lat": 0.32917,
    "lon": 32.55333,
    "iso2": "UG",
    "kind": "unesco"
  },
  {
    "id": "Q387687",
    "title": "churches of Moldavia",
    "lat": 47.733,
    "lon": 25.933,
    "iso2": "RO",
    "kind": "unesco"
  },
  {
    "id": "Q318422",
    "title": "Quiriguá",
    "lat": 15.26944,
    "lon": -89.04028,
    "iso2": "GT",
    "kind": "unesco"
  },
  {
    "id": "Q464942",
    "title": "Garajonay National Park",
    "lat": 28.12625,
    "lon": -17.23722,
    "iso2": "ES",
    "kind": "unesco"
  },
  {
    "id": "Q430563",
    "title": "Pachacámac",
    "lat": -12.25806,
    "lon": -76.9,
    "iso2": "PE",
    "kind": "unesco"
  },
  {
    "id": "Q301684",
    "title": "Glienicke Palace",
    "lat": 52.4142,
    "lon": 13.0953,
    "iso2": "DE",
    "kind": "unesco"
  },
  {
    "id": "Q278512",
    "title": "Cerrado",
    "lat": -14.00569,
    "lon": -47.68461,
    "iso2": "BR",
    "kind": "unesco"
  },
  {
    "id": "Q391215",
    "title": "Volubilis",
    "lat": 34.07111,
    "lon": -5.55361,
    "iso2": "MA",
    "kind": "unesco"
  },
  {
    "id": "Q301815",
    "title": "Thracian Tomb of Kazanlak",
    "lat": 42.62556,
    "lon": 25.39917,
    "iso2": "BG",
    "kind": "unesco"
  },
  {
    "id": "Q464004",
    "title": "Great Smoky Mountains National Park",
    "lat": 35.61111,
    "lon": -83.425,
    "iso2": "US",
    "kind": "unesco"
  },
  {
    "id": "Q308807",
    "title": "Tadrart Acacus",
    "lat": 24.83343,
    "lon": 10.33332,
    "iso2": "LY",
    "kind": "unesco"
  },
  {
    "id": "Q324638",
    "title": "Sacred Island of Okinoshima and Associated Sites in the Munakata Region",
    "lat": 34.245,
    "lon": 130.1056,
    "iso2": "JP",
    "kind": "unesco"
  },
  {
    "id": "Q311341",
    "title": "Al-Ahsa Oasis",
    "lat": 25.42944,
    "lon": 49.62194,
    "iso2": "SA",
    "kind": "unesco"
  },
  {
    "id": "Q645157",
    "title": "Poblet Monastery",
    "lat": 41.38083,
    "lon": 1.0825,
    "iso2": "ES",
    "kind": "unesco"
  },
  {
    "id": "Q391973",
    "title": "Šibenik Cathedral",
    "lat": 43.73556,
    "lon": 15.88917,
    "iso2": "HR",
    "kind": "unesco"
  },
  {
    "id": "Q367395",
    "title": "Q367395",
    "lat": 47.51056,
    "lon": 19.0713,
    "iso2": "HU",
    "kind": "unesco"
  },
  {
    "id": "Q422941",
    "title": "Central Highlands of Sri Lanka",
    "lat": 7.45245,
    "lon": 80.8021,
    "iso2": "LK",
    "kind": "unesco"
  },
  {
    "id": "Q422929",
    "title": "Sarazm",
    "lat": 39.51667,
    "lon": 67.56667,
    "iso2": "TJ",
    "kind": "unesco"
  },
  {
    "id": "Q390264",
    "title": "Manu National Park",
    "lat": -12.14,
    "lon": -71.66,
    "iso2": "PE",
    "kind": "unesco"
  },
  {
    "id": "Q647265",
    "title": "St. Mihiel American Cemetery and Memorial",
    "lat": 48.95698,
    "lon": 5.85307,
    "iso2": "FR",
    "kind": "unesco"
  },
  {
    "id": "Q457304",
    "title": "Okapi Wildlife Reserve",
    "lat": 2,
    "lon": 28.5,
    "iso2": "CD",
    "kind": "unesco"
  },
  {
    "id": "Q379759",
    "title": "Henderson Island",
    "lat": -24.375,
    "lon": -128.325,
    "iso2": "GB",
    "kind": "unesco"
  },
  {
    "id": "Q645105",
    "title": "Euphrasian Basilica",
    "lat": 45.22861,
    "lon": 13.59361,
    "iso2": "HR",
    "kind": "unesco"
  },
  {
    "id": "Q277576",
    "title": "Putorana Plateau",
    "lat": 69,
    "lon": 93,
    "iso2": "RU",
    "kind": "unesco"
  },
  {
    "id": "Q392365",
    "title": "Vlkolínec",
    "lat": 49.03889,
    "lon": 19.27833,
    "iso2": "SK",
    "kind": "unesco"
  },
  {
    "id": "Q463159",
    "title": "Prehistoric Sites and Decorated Caves of the Vézère Valley",
    "lat": 45.0575,
    "lon": 1.17,
    "iso2": "FR",
    "kind": "unesco"
  },
  {
    "id": "Q396132",
    "title": "Southern Öland cultural landscape",
    "lat": 56.46667,
    "lon": 16.55,
    "iso2": "SE",
    "kind": "unesco"
  },
  {
    "id": "Q463141",
    "title": "Doñana National and Natural Park",
    "lat": 37.02,
    "lon": -6.44,
    "iso2": "ES",
    "kind": "unesco"
  },
  {
    "id": "Q433634",
    "title": "Rock carvings at Alta",
    "lat": 69.94694,
    "lon": 23.18778,
    "iso2": "NO",
    "kind": "unesco"
  },
  {
    "id": "Q391338",
    "title": "Wood Buffalo National Park",
    "lat": 59.3833,
    "lon": -112.983,
    "iso2": "CA",
    "kind": "unesco"
  },
  {
    "id": "Q464566",
    "title": "Cornwall and West Devon Mining Landscape",
    "lat": 50.13611,
    "lon": -5.38361,
    "iso2": "GB",
    "kind": "unesco"
  },
  {
    "id": "Q319296",
    "title": "Madara Rider",
    "lat": 43.27737,
    "lon": 27.11889,
    "iso2": "BG",
    "kind": "unesco"
  },
  {
    "id": "Q305044",
    "title": "Somapura Mahavihara",
    "lat": 25.03111,
    "lon": 88.97694,
    "iso2": "BD",
    "kind": "unesco"
  },
  {
    "id": "Q464904",
    "title": "Yinxu",
    "lat": 36.1225,
    "lon": 114.31861,
    "iso2": "CN",
    "kind": "unesco"
  },
  {
    "id": "Q305169",
    "title": "Los Katíos National Park",
    "lat": 7.8,
    "lon": -77.15,
    "iso2": "CO",
    "kind": "unesco"
  },
  {
    "id": "Q309436",
    "title": "Aït Benhaddou",
    "lat": 31.05,
    "lon": -7.13333,
    "iso2": "MA",
    "kind": "unesco"
  },
  {
    "id": "Q379080",
    "title": "Fort Jesus Museum",
    "lat": -4.06274,
    "lon": 39.67964,
    "iso2": "KE",
    "kind": "unesco"
  },
  {
    "id": "Q454078",
    "title": "Belvedere on the Pfingstberg",
    "lat": 52.4187,
    "lon": 13.059,
    "iso2": "DE",
    "kind": "unesco"
  },
  {
    "id": "Q646076",
    "title": "Derwent Valley Mills",
    "lat": 53.108,
    "lon": -1.556,
    "iso2": "GB",
    "kind": "unesco"
  },
  {
    "id": "Q315105",
    "title": "Babelsberg Park",
    "lat": 52.40539,
    "lon": 13.09272,
    "iso2": "DE",
    "kind": "unesco"
  },
  {
    "id": "Q374096",
    "title": "Chauvet Cave",
    "lat": 44.38812,
    "lon": 4.41614,
    "iso2": "FR",
    "kind": "unesco"
  },
  {
    "id": "Q279968",
    "title": "Roman Monuments, Cathedral of St. Peter and Church of Our Lady in Trier UNESCO World Heritage Site",
    "lat": 49.75,
    "lon": 6.63306,
    "iso2": "DE",
    "kind": "unesco"
  },
  {
    "id": "Q274131",
    "title": "Everglades National Park",
    "lat": 25.3125,
    "lon": -80.6875,
    "iso2": "US",
    "kind": "unesco"
  },
  {
    "id": "Q392215",
    "title": "northern French coal mining region",
    "lat": 50.4625,
    "lon": 3.54611,
    "iso2": "FR",
    "kind": "unesco"
  },
  {
    "id": "Q277683",
    "title": "Lena Pillars",
    "lat": 61.10694,
    "lon": 127.36167,
    "iso2": "RU",
    "kind": "unesco"
  },
  {
    "id": "Q314730",
    "title": "Artists' Colony in Darmstadt",
    "lat": 49.87543,
    "lon": 8.6665,
    "iso2": "DE",
    "kind": "unesco"
  },
  {
    "id": "Q330095",
    "title": "Vredefort crater",
    "lat": -26.81667,
    "lon": 27.41667,
    "iso2": "ZA",
    "kind": "unesco"
  },
  {
    "id": "Q391391",
    "title": "Nahanni National Park Reserve",
    "lat": 61.5971,
    "lon": -125.852,
    "iso2": "CA",
    "kind": "unesco"
  },
  {
    "id": "Q308805",
    "title": "Yungang Grottoes",
    "lat": 40.10972,
    "lon": 113.12222,
    "iso2": "CN",
    "kind": "unesco"
  },
  {
    "id": "Q277540",
    "title": "Chan Chan",
    "lat": -8.11056,
    "lon": -79.075,
    "iso2": "PE",
    "kind": "unesco"
  },
  {
    "id": "Q332800",
    "title": "Madriu-Perafita-Claror Valley",
    "lat": 42.49215,
    "lon": 1.59443,
    "iso2": "AD",
    "kind": "unesco"
  },
  {
    "id": "Q458167",
    "title": "Ambohimanga",
    "lat": -18.75917,
    "lon": 47.56278,
    "iso2": "MG",
    "kind": "unesco"
  },
  {
    "id": "Q459629",
    "title": "Timgad",
    "lat": 35.48424,
    "lon": 6.46867,
    "iso2": "DZ",
    "kind": "unesco"
  },
  {
    "id": "Q277525",
    "title": "Goguryeo tombs",
    "lat": 38.86306,
    "lon": 125.415,
    "iso2": "KP",
    "kind": "unesco"
  },
  {
    "id": "Q390028",
    "title": "Independence Hall",
    "lat": 39.94889,
    "lon": -75.15,
    "iso2": "US",
    "kind": "unesco"
  },
  {
    "id": "Q318181",
    "title": "Gobustan National Park",
    "lat": 40.10556,
    "lon": 49.38889,
    "iso2": "AZ",
    "kind": "unesco"
  },
  {
    "id": "Q391229",
    "title": "Tournai Cathedral",
    "lat": 50.6065,
    "lon": 3.3889,
    "iso2": "BE",
    "kind": "unesco"
  },
  {
    "id": "Q391406",
    "title": "Mỹ Sơn",
    "lat": 15.76324,
    "lon": 108.12445,
    "iso2": "VN",
    "kind": "unesco"
  },
  {
    "id": "Q643063",
    "title": "Gondwana Rainforests of Australia",
    "lat": -29.6,
    "lon": 149.6,
    "iso2": "AU",
    "kind": "unesco"
  },
  {
    "id": "Q461272",
    "title": "Residences of the Royal House of Savoy",
    "lat": 45.0725,
    "lon": 7.68583,
    "iso2": "IT",
    "kind": "unesco"
  },
  {
    "id": "Q464913",
    "title": "Cidade Velha",
    "lat": 14.91667,
    "lon": -23.60417,
    "iso2": "CV",
    "kind": "unesco"
  },
  {
    "id": "Q464695",
    "title": "Fasil Ghebbi",
    "lat": 12.60806,
    "lon": 37.46972,
    "iso2": "ET",
    "kind": "unesco"
  },
  {
    "id": "Q391496",
    "title": "Australian Convict Sites",
    "lat": -33.37833,
    "lon": 150.99444,
    "iso2": "AU",
    "kind": "unesco"
  },
  {
    "id": "Q457324",
    "title": "Kahuzi-Biéga National Park",
    "lat": -2.31481,
    "lon": 28.75867,
    "iso2": "CD",
    "kind": "unesco"
  },
  {
    "id": "Q372093",
    "title": "Olympic National Park",
    "lat": 47.7,
    "lon": -123.75,
    "iso2": "US",
    "kind": "unesco"
  },
  {
    "id": "Q464918",
    "title": "Abbey of Fontenay",
    "lat": 47.63966,
    "lon": 4.38933,
    "iso2": "FR",
    "kind": "unesco"
  },
  {
    "id": "Q319821",
    "title": "Liberty Island",
    "lat": 40.69,
    "lon": -74.045,
    "iso2": "US",
    "kind": "unesco"
  },
  {
    "id": "Q465960",
    "title": "Jesuit missions among the Guaraní",
    "lat": -27.25528,
    "lon": -55.53167,
    "iso2": "BR",
    "kind": "unesco"
  },
  {
    "id": "Q394443",
    "title": "Polonnaruwa",
    "lat": 7.93333,
    "lon": 81,
    "iso2": "LK",
    "kind": "unesco"
  },
  {
    "id": "Q333661",
    "title": "Cahokia",
    "lat": 38.65389,
    "lon": -90.06444,
    "iso2": "US",
    "kind": "unesco"
  },
  {
    "id": "Q462702",
    "title": "Painted Churches in the Troödos Region",
    "lat": 34.92028,
    "lon": 33.09583,
    "iso2": "CY",
    "kind": "unesco"
  },
  {
    "id": "Q385086",
    "title": "Khirokitia",
    "lat": 34.79673,
    "lon": 33.34372,
    "iso2": "CY",
    "kind": "unesco"
  },
  {
    "id": "Q289466",
    "title": "Dinosaur Provincial Park",
    "lat": 50.7617,
    "lon": -111.485,
    "iso2": "CA",
    "kind": "unesco"
  },
  {
    "id": "Q310719",
    "title": "iSimangaliso Wetland Park",
    "lat": -28,
    "lon": 32.5,
    "iso2": "ZA",
    "kind": "unesco"
  },
  {
    "id": "Q284444",
    "title": "pont Saint-Bénézet",
    "lat": 43.95389,
    "lon": 4.805,
    "iso2": "FR",
    "kind": "unesco"
  },
  {
    "id": "Q278908",
    "title": "Margravial Opera House",
    "lat": 49.94434,
    "lon": 11.57866,
    "iso2": "DE",
    "kind": "unesco"
  },
  {
    "id": "Q339489",
    "title": "Brú na Bóinne",
    "lat": 53.69284,
    "lon": -6.44932,
    "iso2": "IE",
    "kind": "unesco"
  },
  {
    "id": "Q331603",
    "title": "Bhimbetka rock shelters",
    "lat": 22.93863,
    "lon": 77.61438,
    "iso2": "IN",
    "kind": "unesco"
  },
  {
    "id": "Q328577",
    "title": "Taï National Park",
    "lat": 5.75,
    "lon": -7.12,
    "iso2": "CI",
    "kind": "unesco"
  },
  {
    "id": "Q445649",
    "title": "Vilnius Old Town",
    "lat": 54.68333,
    "lon": 25.28333,
    "iso2": "LT",
    "kind": "unesco"
  },
  {
    "id": "Q457453",
    "title": "Villa Tugendhat",
    "lat": 49.20722,
    "lon": 16.61583,
    "iso2": "CZ",
    "kind": "unesco"
  },
  {
    "id": "Q375634",
    "title": "Sinharaja Forest Reserve",
    "lat": 6.24,
    "lon": 80.28,
    "iso2": "LK",
    "kind": "unesco"
  },
  {
    "id": "Q379652",
    "title": "Philippi",
    "lat": 41.01207,
    "lon": 24.28458,
    "iso2": "GR",
    "kind": "unesco"
  },
  {
    "id": "Q312118",
    "title": "Glarus thrust",
    "lat": 46.91667,
    "lon": 9.25,
    "iso2": "CH",
    "kind": "unesco"
  },
  {
    "id": "Q393841",
    "title": "Dead Cities",
    "lat": 36.33417,
    "lon": 36.84417,
    "iso2": "SY",
    "kind": "unesco"
  },
  {
    "id": "Q370956",
    "title": "City of Vicenza and the Palladian Villas of the Veneto",
    "lat": 45.55,
    "lon": 11.55,
    "iso2": "IT",
    "kind": "unesco"
  },
  {
    "id": "Q276553",
    "title": "Boyana Church",
    "lat": 42.64467,
    "lon": 23.26617,
    "iso2": "BG",
    "kind": "unesco"
  },
  {
    "id": "Q389269",
    "title": "Cité de Carcassonne",
    "lat": 43.20644,
    "lon": 2.36379,
    "iso2": "FR",
    "kind": "unesco"
  },
  {
    "id": "Q422995",
    "title": "Thungyai Naresuan Wildlife Sanctuary",
    "lat": 15.33333,
    "lon": 98.91667,
    "iso2": "TH",
    "kind": "unesco"
  },
  {
    "id": "Q457362",
    "title": "Djemila",
    "lat": 36.32056,
    "lon": 5.73667,
    "iso2": "DZ",
    "kind": "unesco"
  },
  {
    "id": "Q435829",
    "title": "Petäjävesi Old Church",
    "lat": 62.25014,
    "lon": 25.18394,
    "iso2": "FI",
    "kind": "unesco"
  },
  {
    "id": "Q447441",
    "title": "Bergpark Wilhelmshöhe",
    "lat": 51.3167,
    "lon": 9.4,
    "iso2": "DE",
    "kind": "unesco"
  },
  {
    "id": "Q43278",
    "title": "Victoria Falls",
    "lat": -17.92478,
    "lon": 25.85806,
    "iso2": "ZM",
    "kind": "unesco"
  },
  {
    "id": "Q15604441",
    "title": "Syracuse and the Rocky Necropolis of Pantalica",
    "lat": 37.05944,
    "lon": 15.29306,
    "iso2": "IT",
    "kind": "unesco"
  },
  {
    "id": "Q15229957",
    "title": "Universidade de Coimbra – Alta e Sofia",
    "lat": 40.20781,
    "lon": -8.42577,
    "iso2": "PT",
    "kind": "unesco"
  },
  {
    "id": "Q31347",
    "title": "Grand Canal",
    "lat": 30.26139,
    "lon": 120.22389,
    "iso2": "CN",
    "kind": "unesco"
  },
  {
    "id": "Q29317",
    "title": "Bagan",
    "lat": 21.1725,
    "lon": 94.86,
    "iso2": "MM",
    "kind": "unesco"
  },
  {
    "id": "Q36160",
    "title": "Hội An",
    "lat": 15.87767,
    "lon": 108.33265,
    "iso2": "VN",
    "kind": "unesco"
  },
  {
    "id": "Q12220316",
    "title": "Old Sana'a",
    "lat": 15.3551,
    "lon": 44.2145,
    "iso2": "YE",
    "kind": "unesco"
  },
  {
    "id": "Q11444847",
    "title": "Amami-Ōshima Island, Tokunoshima Island, northern part of Okinawa Island, and Iriomote Island",
    "lat": 28.27917,
    "lon": 129.37833,
    "iso2": "JP",
    "kind": "unesco"
  },
  {
    "id": "Q46275",
    "title": "New Zealand Subantarctic Islands",
    "lat": -50.75,
    "lon": 166.104,
    "iso2": "NZ",
    "kind": "unesco"
  },
  {
    "id": "Q12676460",
    "title": "Cultural Reserve of Kernavė",
    "lat": 54.88056,
    "lon": 24.84167,
    "iso2": "LT",
    "kind": "unesco"
  },
  {
    "id": "Q237",
    "title": "Vatican City",
    "lat": 41.904,
    "lon": 12.453,
    "iso2": "VA",
    "kind": "unesco"
  },
  {
    "id": "Q15221022",
    "title": "Cathedral, Torre Civica and Piazza Grande, Modena",
    "lat": 44.64624,
    "lon": 10.92568,
    "iso2": "IT",
    "kind": "unesco"
  },
  {
    "id": "Q14942956",
    "title": "Tijuca Forest",
    "lat": -22.963,
    "lon": -43.245,
    "iso2": "BR",
    "kind": "unesco"
  },
  {
    "id": "Q62378",
    "title": "Tower of London",
    "lat": 51.5082,
    "lon": -0.0762,
    "iso2": "GB",
    "kind": "unesco"
  },
  {
    "id": "Q61750",
    "title": "Tiwanaku",
    "lat": -16.55472,
    "lon": -68.67333,
    "iso2": "BO",
    "kind": "unesco"
  },
  {
    "id": "Q13528892",
    "title": "Nieuport Memorial",
    "lat": 51.13696,
    "lon": 2.75563,
    "iso2": "BE",
    "kind": "unesco"
  },
  {
    "id": "Q38888",
    "title": "Olympia",
    "lat": 37.63833,
    "lon": 21.63,
    "iso2": "GR",
    "kind": "unesco"
  },
  {
    "id": "Q46074",
    "title": "Macau Protestant Chapel",
    "lat": 22.19975,
    "lon": 113.53991,
    "iso2": "CN",
    "kind": "unesco"
  },
  {
    "id": "Q11858823",
    "title": "Medina of Essaouira",
    "lat": 31.51441,
    "lon": -9.7689,
    "iso2": "MA",
    "kind": "unesco"
  },
  {
    "id": "Q11402500",
    "title": "Jōmon Prehistoric Sites in Northern Japan",
    "lat": 41.06556,
    "lon": 140.55222,
    "iso2": "JP",
    "kind": "unesco"
  },
  {
    "id": "Q61757",
    "title": "Hortobágy National Park",
    "lat": 47.59458,
    "lon": 21.15678,
    "iso2": "HU",
    "kind": "unesco"
  },
  {
    "id": "Q48472",
    "title": "Konye-Urgench",
    "lat": 42.31667,
    "lon": 59.15861,
    "iso2": "TM",
    "kind": "unesco"
  },
  {
    "id": "Q15233334",
    "title": "Archaeological Ensemble of Mérida",
    "lat": 38.91597,
    "lon": -6.33869,
    "iso2": "ES",
    "kind": "unesco"
  },
  {
    "id": "Q33934",
    "title": "Jesuit Missions of Chiquitos",
    "lat": -16.2748,
    "lon": -62.5072,
    "iso2": "BO",
    "kind": "unesco"
  },
  {
    "id": "Q15052130",
    "title": "Archaeological Site of Sabratha",
    "lat": 32.80528,
    "lon": 12.485,
    "iso2": "LY",
    "kind": "unesco"
  },
  {
    "id": "Q13220079",
    "title": "Ichkeul National Park",
    "lat": 37.12344,
    "lon": 9.65544,
    "iso2": "TN",
    "kind": "unesco"
  },
  {
    "id": "Q15613336",
    "title": "San Marino Historic Centre and Mount Titano",
    "lat": 43.93278,
    "lon": 12.45194,
    "iso2": "SM",
    "kind": "unesco"
  },
  {
    "id": "Q40729",
    "title": "Wadi Rum",
    "lat": 29.5765,
    "lon": 35.41993,
    "iso2": "JO",
    "kind": "unesco"
  },
  {
    "id": "Q15238169",
    "title": "Town Hall and Roland on the Marketplace of Bremen",
    "lat": 53.07597,
    "lon": 8.80747,
    "iso2": "DE",
    "kind": "unesco"
  },
  {
    "id": "Q15604681",
    "title": "Crac des Chevaliers and Qal’at Salah El-Din",
    "lat": 34.78167,
    "lon": 36.26306,
    "iso2": "SY",
    "kind": "unesco"
  },
  {
    "id": "Q15278644",
    "title": "Old Towns of Djenné",
    "lat": 13.90639,
    "lon": -4.555,
    "iso2": "ML",
    "kind": "unesco"
  },
  {
    "id": "Q43286",
    "title": "Mogao Caves",
    "lat": 40.03722,
    "lon": 94.80417,
    "iso2": "CN",
    "kind": "unesco"
  },
  {
    "id": "Q45949",
    "title": "Preah Vihear Temple",
    "lat": 14.39056,
    "lon": 104.68028,
    "iso2": "KH",
    "kind": "unesco"
  },
  {
    "id": "Q13383295",
    "title": "Ogasawara Archipelago",
    "lat": 27,
    "lon": 142.16667,
    "iso2": "JP",
    "kind": "unesco"
  },
  {
    "id": "Q11918155",
    "title": "Ibiza, Biodiversity and Culture",
    "lat": 38.91114,
    "lon": 1.43519,
    "iso2": "ES",
    "kind": "unesco"
  },
  {
    "id": "Q35045",
    "title": "Potosí",
    "lat": -19.58917,
    "lon": -65.75333,
    "iso2": "BO",
    "kind": "unesco"
  },
  {
    "id": "Q12307718",
    "title": "Danish soldiers cemetery in Braine",
    "lat": 49.33468,
    "lon": 3.53208,
    "iso2": "FR",
    "kind": "unesco"
  },
  {
    "id": "Q11812902",
    "title": "Serengeti National Park",
    "lat": -2.33278,
    "lon": 34.56667,
    "iso2": "TZ",
    "kind": "unesco"
  },
  {
    "id": "Q43277",
    "title": "Bam Citadel",
    "lat": 29.11686,
    "lon": 58.36847,
    "iso2": "IR",
    "kind": "unesco"
  },
  {
    "id": "Q14230458",
    "title": "Qingchengshan-Dujiangyan National Park",
    "lat": 30.9068,
    "lon": 103.5679,
    "iso2": "CN",
    "kind": "unesco"
  },
  {
    "id": "Q61535",
    "title": "Gunung Mulu National Park",
    "lat": 4.0425,
    "lon": 114.8125,
    "iso2": "MY",
    "kind": "unesco"
  },
  {
    "id": "Q63524",
    "title": "Hautecombe Abbey",
    "lat": 45.75278,
    "lon": 5.83806,
    "iso2": "FR",
    "kind": "unesco"
  },
  {
    "id": "Q12193567",
    "title": "Al Maghtas",
    "lat": 31.83722,
    "lon": 35.55028,
    "iso2": "JO",
    "kind": "unesco"
  },
  {
    "id": "Q15278460",
    "title": "Royal Exhibition Building and Carlton Gardens",
    "lat": -37.80611,
    "lon": 144.97028,
    "iso2": "AU",
    "kind": "unesco"
  },
  {
    "id": "Q56004",
    "title": "Princely Abbey of Corvey",
    "lat": 51.77778,
    "lon": 9.41,
    "iso2": "DE",
    "kind": "unesco"
  },
  {
    "id": "Q46650",
    "title": "Macquarie Island",
    "lat": -54.63,
    "lon": 158.86,
    "iso2": "AU",
    "kind": "unesco"
  },
  {
    "id": "Q15617061",
    "title": "Fosse n° 5 des mines de Meurchin",
    "lat": 50.5095,
    "lon": 2.85055,
    "iso2": "FR",
    "kind": "unesco"
  },
  {
    "id": "Q14752597",
    "title": "Limes Dacicus",
    "lat": 47.18079,
    "lon": 23.15941,
    "iso2": "RO",
    "kind": "unesco"
  },
  {
    "id": "Q11605230",
    "title": "Honghe Hani Rice Terraces",
    "lat": 23.11719,
    "lon": 102.7377,
    "iso2": "CN",
    "kind": "unesco"
  },
  {
    "id": "Q39671",
    "title": "Stonehenge",
    "lat": 51.17889,
    "lon": -1.82611,
    "iso2": "GB",
    "kind": "unesco"
  },
  {
    "id": "Q15229898",
    "title": "Monastery of the Hieronymites and Tower of Belém in Lisbon",
    "lat": 38.69194,
    "lon": -9.21583,
    "iso2": "PT",
    "kind": "unesco"
  },
  {
    "id": "Q48605",
    "title": "León Cathedral",
    "lat": 12.435,
    "lon": -86.8781,
    "iso2": "NI",
    "kind": "unesco"
  },
  {
    "id": "Q33200",
    "title": "Mosque-Cathedral of Cordoba",
    "lat": 37.87887,
    "lon": -4.77934,
    "iso2": "ES",
    "kind": "unesco"
  },
  {
    "id": "Q36034",
    "title": "Huangshan",
    "lat": 30.125,
    "lon": 118.16667,
    "iso2": "CN",
    "kind": "unesco"
  },
  {
    "id": "Q15240748",
    "title": "Wieliczka and Bochnia Royal Salt Mines",
    "lat": 49.97917,
    "lon": 20.06389,
    "iso2": "PL",
    "kind": "unesco"
  },
  {
    "id": "Q54898",
    "title": "San Cristóbal de La Laguna",
    "lat": 28.48528,
    "lon": -16.31667,
    "iso2": "ES",
    "kind": "unesco"
  },
  {
    "id": "Q47721",
    "title": "Prambanan Temple",
    "lat": -7.752,
    "lon": 110.49122,
    "iso2": "ID",
    "kind": "unesco"
  },
  {
    "id": "Q50711",
    "title": "Duchess Anna Amalia Library",
    "lat": 50.97861,
    "lon": 11.33222,
    "iso2": "DE",
    "kind": "unesco"
  },
  {
    "id": "Q14863645",
    "title": "Bauhaus and its Sites in Weimar, Dessau and Bernau",
    "lat": 50.97477,
    "lon": 11.32949,
    "iso2": "DE",
    "kind": "unesco"
  },
  {
    "id": "Q15260680",
    "title": "Old and New Towns of Edinburgh",
    "lat": 55.95,
    "lon": -3.21667,
    "iso2": "GB",
    "kind": "unesco"
  },
  {
    "id": "Q12125635",
    "title": "National History Park",
    "lat": 19.57361,
    "lon": -72.24389,
    "iso2": "HT",
    "kind": "unesco"
  },
  {
    "id": "Q15278408",
    "title": "Gebel Barkal and the Sites of the Napatan Region",
    "lat": 18.53333,
    "lon": 31.81667,
    "iso2": "SD",
    "kind": "unesco"
  },
  {
    "id": "Q15224718",
    "title": "Ancient Villages in Southern Anhui - Xidi and Hongcun",
    "lat": 29.90444,
    "lon": 117.9875,
    "iso2": "CN",
    "kind": "unesco"
  },
  {
    "id": "Q60977",
    "title": "Anjar",
    "lat": 33.72583,
    "lon": 35.92972,
    "iso2": "LB",
    "kind": "unesco"
  },
  {
    "id": "Q15224654",
    "title": "Brazilian Atlantic Islands: Fernando de Noronha and Atol das Rocas Reserves",
    "lat": -3.85794,
    "lon": -32.42511,
    "iso2": "BR",
    "kind": "unesco"
  },
  {
    "id": "Q37222",
    "title": "Bagrati Cathedral",
    "lat": 42.2773,
    "lon": 42.7043,
    "iso2": "GE",
    "kind": "unesco"
  },
  {
    "id": "Q48108",
    "title": "Viñales Valley",
    "lat": 22.61667,
    "lon": -83.71667,
    "iso2": "CU",
    "kind": "unesco"
  },
  {
    "id": "Q12597917",
    "title": "Baekje Historic Areas",
    "lat": 36.46194,
    "lon": 127.12722,
    "iso2": "KR",
    "kind": "unesco"
  },
  {
    "id": "Q45957",
    "title": "Red Fort",
    "lat": 28.65583,
    "lon": 77.24028,
    "iso2": "IN",
    "kind": "unesco"
  },
  {
    "id": "Q12352436",
    "title": "Medina of Meknes",
    "lat": 33.89486,
    "lon": -5.56448,
    "iso2": "MA",
    "kind": "unesco"
  },
  {
    "id": "Q45178",
    "title": "Sydney Opera House",
    "lat": -33.85706,
    "lon": 151.2149,
    "iso2": "AU",
    "kind": "unesco"
  },
  {
    "id": "Q12192963",
    "title": "Al-Aqsa Mosque",
    "lat": 31.77611,
    "lon": 35.23583,
    "iso2": "PS",
    "kind": "unesco"
  },
  {
    "id": "Q46069",
    "title": "Mausoleum of Khoja Ahmed Yasawi",
    "lat": 43.29764,
    "lon": 68.27104,
    "iso2": "KZ",
    "kind": "unesco"
  },
  {
    "id": "Q12909548",
    "title": "Slatinski Izvor",
    "lat": 41.5753,
    "lon": 21.2169,
    "iso2": "MK",
    "kind": "unesco"
  },
  {
    "id": "Q48608",
    "title": "Darién National Park",
    "lat": 7.73611,
    "lon": -77.54722,
    "iso2": "PA",
    "kind": "unesco"
  },
  {
    "id": "Q15477047",
    "title": "Biblical Tels - Megiddo, Hazor, Beer Sheba",
    "lat": 32.59722,
    "lon": 35.18222,
    "iso2": "IL",
    "kind": "unesco"
  },
  {
    "id": "Q48435",
    "title": "Basilica and Expiatory Church of the Holy Family",
    "lat": 41.40369,
    "lon": 2.17433,
    "iso2": "ES",
    "kind": "unesco"
  },
  {
    "id": "Q15278712",
    "title": "Architectural, Residential and Cultural Complex of the Radziwill Family at Nesvizh",
    "lat": 53.22278,
    "lon": 26.69139,
    "iso2": "BY",
    "kind": "unesco"
  },
  {
    "id": "Q46313",
    "title": "Buda Castle",
    "lat": 47.49611,
    "lon": 19.03972,
    "iso2": "HU",
    "kind": "unesco"
  },
  {
    "id": "Q15255454",
    "title": "Naval City of Karlskrona",
    "lat": 56.16667,
    "lon": 15.58333,
    "iso2": "SE",
    "kind": "unesco"
  },
  {
    "id": "Q48153",
    "title": "Alexander von Humboldt National Park",
    "lat": 20.45806,
    "lon": -74.9,
    "iso2": "CU",
    "kind": "unesco"
  },
  {
    "id": "Q12156631",
    "title": "Old City of Salamanca",
    "lat": 40.96525,
    "lon": -5.6645,
    "iso2": "ES",
    "kind": "unesco"
  },
  {
    "id": "Q15240737",
    "title": "Buddhist Ruins of Takht-i-Bahi and Neighbouring City Remains at Sahr-i-Bahlol",
    "lat": 34.32083,
    "lon": 71.94583,
    "iso2": "PK",
    "kind": "unesco"
  },
  {
    "id": "Q15041608",
    "title": "historical city centre of Odesa",
    "lat": 46.485,
    "lon": 30.741,
    "iso2": "UA",
    "kind": "unesco"
  },
  {
    "id": "Q45690",
    "title": "Dambulla cave temple",
    "lat": 7.85667,
    "lon": 80.64917,
    "iso2": "LK",
    "kind": "unesco"
  },
  {
    "id": "Q44112",
    "title": "Cyrene",
    "lat": 32.81667,
    "lon": 21.85,
    "iso2": "LY",
    "kind": "unesco"
  },
  {
    "id": "Q32378",
    "title": "Dougga",
    "lat": 36.42333,
    "lon": 9.22028,
    "iso2": "TN",
    "kind": "unesco"
  },
  {
    "id": "Q15241016",
    "title": "Historic Centre of Avignon",
    "lat": 43.95278,
    "lon": 4.80611,
    "iso2": "FR",
    "kind": "unesco"
  },
  {
    "id": "Q15106167",
    "title": "Aachen Cathedral Treasury",
    "lat": 50.77504,
    "lon": 6.08282,
    "iso2": "DE",
    "kind": "unesco"
  },
  {
    "id": "Q14223008",
    "title": "Ecosystem and Relict Cultural Landscape of Lopé-Okanda",
    "lat": -0.5,
    "lon": 11.5,
    "iso2": "GA",
    "kind": "unesco"
  },
  {
    "id": "Q15602246",
    "title": "Etruscan Necropolises of Cerveteri and Tarquinia",
    "lat": 42.00683,
    "lon": 12.10189,
    "iso2": "IT",
    "kind": "unesco"
  },
  {
    "id": "Q15613314",
    "title": "Protective town of San Miguel and the Sanctuary of Jesús Nazareno de Atotonilco",
    "lat": 20.91444,
    "lon": -100.74639,
    "iso2": "MX",
    "kind": "unesco"
  },
  {
    "id": "Q12013407",
    "title": "St Symphorien Military Cemetery",
    "lat": 50.43228,
    "lon": 4.01076,
    "iso2": "BE",
    "kind": "unesco"
  },
  {
    "id": "Q12269990",
    "title": "West Norwegian Fjords – Geirangerfjord and Nærøyfjord",
    "lat": 60.96578,
    "lon": 6.97769,
    "iso2": "NO",
    "kind": "unesco"
  },
  {
    "id": "Q57357",
    "title": "Hadrian's Wall",
    "lat": 55.02417,
    "lon": -2.2925,
    "iso2": "GB",
    "kind": "unesco"
  },
  {
    "id": "Q12386144",
    "title": "old town of Santiago de Compostela",
    "lat": 42.88076,
    "lon": -8.54468,
    "iso2": "ES",
    "kind": "unesco"
  },
  {
    "id": "Q15107508",
    "title": "Falun Mine",
    "lat": 60.6004,
    "lon": 15.61568,
    "iso2": "SE",
    "kind": "unesco"
  },
  {
    "id": "Q890652",
    "title": "Our Lady of Promise",
    "lat": 42.21139,
    "lon": 20.73583,
    "iso2": "RS",
    "kind": "unesco"
  },
  {
    "id": "Q920206",
    "title": "Grimeton VLF transmitter",
    "lat": 57.11398,
    "lon": 12.40442,
    "iso2": "SE",
    "kind": "unesco"
  },
  {
    "id": "Q15726321",
    "title": "Roman Theatre and its Surroundings and the \"Triumphal Arch\" of Orange",
    "lat": 44.13572,
    "lon": 4.80842,
    "iso2": "FR",
    "kind": "unesco"
  },
  {
    "id": "Q917429",
    "title": "Matobo Hills",
    "lat": -20.5,
    "lon": 28.5,
    "iso2": "ZW",
    "kind": "unesco"
  },
  {
    "id": "Q910180",
    "title": "Mausoleum of the First Qin Emperor",
    "lat": 34.38167,
    "lon": 109.25389,
    "iso2": "CN",
    "kind": "unesco"
  },
  {
    "id": "Q903792",
    "title": "Tlacotalpan",
    "lat": 18.61303,
    "lon": -95.65627,
    "iso2": "MX",
    "kind": "unesco"
  },
  {
    "id": "Q837935",
    "title": "Senado Square",
    "lat": 22.19358,
    "lon": 113.53967,
    "iso2": "CN",
    "kind": "unesco"
  },
  {
    "id": "Q878986",
    "title": "Church of St. George",
    "lat": 47.68917,
    "lon": 9.08222,
    "iso2": "DE",
    "kind": "unesco"
  },
  {
    "id": "Q852085",
    "title": "Burgess Shale",
    "lat": 51.4333,
    "lon": -116.467,
    "iso2": "CA",
    "kind": "unesco"
  },
  {
    "id": "Q877609",
    "title": "Dengfeng",
    "lat": 34.41609,
    "lon": 113.04242,
    "iso2": "CN",
    "kind": "unesco"
  },
  {
    "id": "Q838928",
    "title": "Rwenzori Mountains National Park",
    "lat": 0.2236,
    "lon": 29.9242,
    "iso2": "UG",
    "kind": "unesco"
  },
  {
    "id": "Q873358",
    "title": "Mount Sanqing",
    "lat": 28.95194,
    "lon": 118.05194,
    "iso2": "CN",
    "kind": "unesco"
  },
  {
    "id": "Q15924897",
    "title": "Canterbury Cathedral, St Augustine's Abbey, and St Martin's Church",
    "lat": 51.28,
    "lon": 1.08333,
    "iso2": "GB",
    "kind": "unesco"
  },
  {
    "id": "Q15726428",
    "title": "Churches and Convents of Goa",
    "lat": 15.5024,
    "lon": 73.9117,
    "iso2": "IN",
    "kind": "unesco"
  },
  {
    "id": "Q911953",
    "title": "El Camino Real de Tierra Adentro",
    "lat": 22.60806,
    "lon": -102.37917,
    "iso2": "US",
    "kind": "unesco"
  },
  {
    "id": "Q15726137",
    "title": "Historic Monuments and Sites in Kaesong",
    "lat": 37.98167,
    "lon": 126.50806,
    "iso2": "KP",
    "kind": "unesco"
  },
  {
    "id": "Q839603",
    "title": "Sangay National Park",
    "lat": -1.83333,
    "lon": -78.33333,
    "iso2": "EC",
    "kind": "unesco"
  },
  {
    "id": "Q15850911",
    "title": "Tiefer Georg-Stollen",
    "lat": 51.80472,
    "lon": 10.23528,
    "iso2": "DE",
    "kind": "unesco"
  },
  {
    "id": "Q15727412",
    "title": "Ancient City of Bosra",
    "lat": 32.51806,
    "lon": 36.48167,
    "iso2": "SY",
    "kind": "unesco"
  },
  {
    "id": "Q874027",
    "title": "Historic Monuments of Ancient Kyoto",
    "lat": 35.06028,
    "lon": 135.75278,
    "iso2": "JP",
    "kind": "unesco"
  },
  {
    "id": "Q921745",
    "title": "Works of Antoni Gaudí",
    "lat": 41.36383,
    "lon": 2.02782,
    "iso2": "ES",
    "kind": "unesco"
  },
  {
    "id": "Q15661566",
    "title": "Prehistoric Caves of Yagul and Mitla in the Central Valley of Oaxaca",
    "lat": 16.95083,
    "lon": -96.42111,
    "iso2": "MX",
    "kind": "unesco"
  },
  {
    "id": "Q865097",
    "title": "Historic Town of Sukhothai and Associated Historic Towns",
    "lat": 17.02111,
    "lon": 99.70361,
    "iso2": "TH",
    "kind": "unesco"
  },
  {
    "id": "Q910661",
    "title": "Old city (Dubrovnik)",
    "lat": 42.6409,
    "lon": 18.1091,
    "iso2": "HR",
    "kind": "unesco"
  },
  {
    "id": "Q838256",
    "title": "Ferapontov Monastery",
    "lat": 59.95639,
    "lon": 38.5675,
    "iso2": "RU",
    "kind": "unesco"
  },
  {
    "id": "Q15904183",
    "title": "Liangzhu site",
    "lat": 30.39667,
    "lon": 119.98528,
    "iso2": "CN",
    "kind": "unesco"
  },
  {
    "id": "Q15726304",
    "title": "Old City of Jerusalem and its Walls",
    "lat": 31.77821,
    "lon": 35.23191,
    "iso2": "IL",
    "kind": "unesco"
  },
  {
    "id": "Q15839120",
    "title": "Old Town of Ávila with its Extra-Muros Churches",
    "lat": 40.65639,
    "lon": -4.70011,
    "iso2": "ES",
    "kind": "unesco"
  },
  {
    "id": "Q15725130",
    "title": "Thungyai-Huai Kha Khaeng Wildlife Sanctuaries",
    "lat": 15.33333,
    "lon": 98.91667,
    "iso2": "TH",
    "kind": "unesco"
  },
  {
    "id": "Q838920",
    "title": "Saltaire",
    "lat": 53.83717,
    "lon": -1.79026,
    "iso2": "GB",
    "kind": "unesco"
  },
  {
    "id": "Q15708461",
    "title": "Schwedenhaus",
    "lat": 51.84348,
    "lon": 12.30248,
    "iso2": "DE",
    "kind": "unesco"
  },
  {
    "id": "Q15732525",
    "title": "Durham Castle and Cathedral",
    "lat": 54.77472,
    "lon": -1.57611,
    "iso2": "GB",
    "kind": "unesco"
  },
  {
    "id": "Q917369",
    "title": "Huascarán National Park",
    "lat": -9.45,
    "lon": -77.43,
    "iso2": "PE",
    "kind": "unesco"
  },
  {
    "id": "Q15728409",
    "title": "Place Stanislas, Place de la Carrière and Place d'Alliance in Nancy",
    "lat": 48.69361,
    "lon": 6.18333,
    "iso2": "FR",
    "kind": "unesco"
  },
  {
    "id": "Q844417",
    "title": "Stone Town",
    "lat": -6.16494,
    "lon": 39.19879,
    "iso2": "TZ",
    "kind": "unesco"
  },
  {
    "id": "Q15726441",
    "title": "From the Great Saltworks of Salins-les-Bains to the Royal Saltworks of Arc-et-Senans, the Production of Open-pan Salt",
    "lat": 46.9375,
    "lon": 5.87639,
    "iso2": "FR",
    "kind": "unesco"
  },
  {
    "id": "Q15660376",
    "title": "West Lake Cultural Landscape of Hangzhou",
    "lat": 30.2375,
    "lon": 120.14083,
    "iso2": "CN",
    "kind": "unesco"
  },
  {
    "id": "Q851122",
    "title": "Budapest, including the Banks of the Danube, the Buda Castle Quarter and Andrássy Avenue",
    "lat": 47.48242,
    "lon": 19.07067,
    "iso2": "HU",
    "kind": "unesco"
  },
  {
    "id": "Q852427",
    "title": "Palaces and Parks of Potsdam and Berlin",
    "lat": 52.4,
    "lon": 13.03333,
    "iso2": "DE",
    "kind": "unesco"
  },
  {
    "id": "Q870087",
    "title": "Schloss Großkühnau",
    "lat": 51.854,
    "lon": 12.1796,
    "iso2": "DE",
    "kind": "unesco"
  },
  {
    "id": "Q843147",
    "title": "Dja Faunal Reserve",
    "lat": 3.0167,
    "lon": 12.9833,
    "iso2": "CM",
    "kind": "unesco"
  },
  {
    "id": "Q904128",
    "title": "Gamzigrad",
    "lat": 43.89931,
    "lon": 22.18617,
    "iso2": "RS",
    "kind": "unesco"
  },
  {
    "id": "Q854672",
    "title": "Nisa",
    "lat": 37.95115,
    "lon": 58.21241,
    "iso2": "TM",
    "kind": "unesco"
  },
  {
    "id": "Q15980181",
    "title": "Cultural and Historic Ensemble of the Solovetsky Islands",
    "lat": 65.08333,
    "lon": 35.66667,
    "iso2": "RU",
    "kind": "unesco"
  },
  {
    "id": "Q846967",
    "title": "Nan Madol",
    "lat": 6.84194,
    "lon": 158.33222,
    "iso2": "FM",
    "kind": "unesco"
  },
  {
    "id": "Q849517",
    "title": "Visoki Dečani",
    "lat": 42.54694,
    "lon": 20.26639,
    "iso2": "RS",
    "kind": "unesco"
  },
  {
    "id": "Q837642",
    "title": "Jesuit Block and Estancias of Córdoba",
    "lat": -31.65611,
    "lon": -64.43528,
    "iso2": "AR",
    "kind": "unesco"
  },
  {
    "id": "Q838085",
    "title": "Fortaleza do Monte",
    "lat": 22.19694,
    "lon": 113.54222,
    "iso2": "CN",
    "kind": "unesco"
  },
  {
    "id": "Q15924695",
    "title": "Historic Centre of Mexico City and Xochimilco",
    "lat": 19.41833,
    "lon": -99.13278,
    "iso2": "MX",
    "kind": "unesco"
  },
  {
    "id": "Q15623665",
    "title": "Mantua and Sabbioneta",
    "lat": 45.15944,
    "lon": 10.79444,
    "iso2": "IT",
    "kind": "unesco"
  },
  {
    "id": "Q15727363",
    "title": "Jesuit Missions of La Santísima Trinidad de Paraná and Jesús de Tavarangüé",
    "lat": -27.056,
    "lon": -55.753,
    "iso2": "PY",
    "kind": "unesco"
  },
  {
    "id": "Q877626",
    "title": "Historic Villages of Shirakawa-gō and Gokayama",
    "lat": 36.25694,
    "lon": 136.90639,
    "iso2": "JP",
    "kind": "unesco"
  },
  {
    "id": "Q876451",
    "title": "El Fuerte de Samaipata",
    "lat": -18.17836,
    "lon": -63.81899,
    "iso2": "BO",
    "kind": "unesco"
  },
  {
    "id": "Q854267",
    "title": "Wooden churches of Southern Lesser Poland",
    "lat": 49.63059,
    "lon": 21.18605,
    "iso2": "PL",
    "kind": "unesco"
  },
  {
    "id": "Q841896",
    "title": "Armenian Monastic Ensembles of Iran",
    "lat": 38.97889,
    "lon": 45.47333,
    "iso2": "IR",
    "kind": "unesco"
  },
  {
    "id": "Q863815",
    "title": "Phoenix Islands Protected Area",
    "lat": -3.64972,
    "lon": -172.8575,
    "iso2": "KI",
    "kind": "unesco"
  },
  {
    "id": "Q844427",
    "title": "Champaner-Pavagadh Archaeological Park",
    "lat": 22.48333,
    "lon": 73.53333,
    "iso2": "IN",
    "kind": "unesco"
  },
  {
    "id": "Q15948413",
    "title": "Moosch National Cemetery",
    "lat": 47.8595,
    "lon": 7.0547,
    "iso2": "FR",
    "kind": "unesco"
  },
  {
    "id": "Q15728389",
    "title": "Old Town of Segovia and its Aqueduct",
    "lat": 40.94847,
    "lon": -4.11675,
    "iso2": "ES",
    "kind": "unesco"
  },
  {
    "id": "Q870438",
    "title": "Q870438",
    "lat": 51.8666,
    "lon": 12.3214,
    "iso2": "DE",
    "kind": "unesco"
  },
  {
    "id": "Q15728398",
    "title": "Mana Pools National Park, Sapi and Chewore Safari Areas",
    "lat": -15.81944,
    "lon": 29.40806,
    "iso2": "ZW",
    "kind": "unesco"
  },
  {
    "id": "Q15726282",
    "title": "Ruins of Kilwa Kisiwani and Ruins of Songo Mnara",
    "lat": -8.95778,
    "lon": 39.52278,
    "iso2": "TZ",
    "kind": "unesco"
  },
  {
    "id": "Q876685",
    "title": "Medieval City of Rhodes",
    "lat": 36.44306,
    "lon": 28.22694,
    "iso2": "GR",
    "kind": "unesco"
  },
  {
    "id": "Q15830656",
    "title": "Monticello and the University of Virginia in Charlottesville",
    "lat": 38.03278,
    "lon": -78.50389,
    "iso2": "US",
    "kind": "unesco"
  },
  {
    "id": "Q899302",
    "title": "Cave of Altamira and Paleolithic Cave Art of Northern Spain",
    "lat": 43.3825,
    "lon": -4.11611,
    "iso2": "ES",
    "kind": "unesco"
  },
  {
    "id": "Q867586",
    "title": "Salt",
    "lat": 32.03917,
    "lon": 35.72722,
    "iso2": "JO",
    "kind": "unesco"
  },
  {
    "id": "Q842328",
    "title": "Sangiran",
    "lat": -7.45,
    "lon": 110.85,
    "iso2": "ID",
    "kind": "unesco"
  },
  {
    "id": "Q870258",
    "title": "Plain of Jars",
    "lat": 19.43111,
    "lon": 103.1525,
    "iso2": "LA",
    "kind": "unesco"
  },
  {
    "id": "Q15965460",
    "title": "Historic Walled Town of Cuenca",
    "lat": 40.0766,
    "lon": -2.13175,
    "iso2": "ES",
    "kind": "unesco"
  },
  {
    "id": "Q15728421",
    "title": "Gulf of Porto: Calanche of Piana, Gulf of Girolata, Scandola Reserve",
    "lat": 42.32519,
    "lon": 8.62883,
    "iso2": "FR",
    "kind": "unesco"
  },
  {
    "id": "Q15924669",
    "title": "Hierapolis-Pamukkale",
    "lat": 37.92389,
    "lon": 29.12333,
    "iso2": "TR",
    "kind": "unesco"
  },
  {
    "id": "Q16064866",
    "title": "The Great Spa Towns of Europe",
    "lat": 50.49222,
    "lon": 5.86694,
    "iso2": "IT",
    "kind": "unesco"
  },
  {
    "id": "Q838264",
    "title": "White Monuments of Vladimir and Suzdal",
    "lat": 56.15,
    "lon": 40.4167,
    "iso2": "RU",
    "kind": "unesco"
  },
  {
    "id": "Q15813909",
    "title": "Hanseatic City of Lübeck",
    "lat": 53.86667,
    "lon": 10.69167,
    "iso2": "DE",
    "kind": "unesco"
  },
  {
    "id": "Q15819677",
    "title": "Trinidad and the Valley de los Ingenios",
    "lat": 21.80306,
    "lon": -79.98444,
    "iso2": "CU",
    "kind": "unesco"
  },
  {
    "id": "Q853364",
    "title": "South China Karst",
    "lat": 24.9233,
    "lon": 110.3544,
    "iso2": "CN",
    "kind": "unesco"
  },
  {
    "id": "Q15839097",
    "title": "Nanda Devi and Valley of Flowers National Parks",
    "lat": 30.71667,
    "lon": 79.66667,
    "iso2": "IN",
    "kind": "unesco"
  },
  {
    "id": "Q852433",
    "title": "East Rennell",
    "lat": -11.68333,
    "lon": 160.33333,
    "iso2": "SB",
    "kind": "unesco"
  },
  {
    "id": "Q15933552",
    "title": "Australian Fossil Mammal Sites (Riversleigh / Naracoorte)",
    "lat": -19.08333,
    "lon": 138.71667,
    "iso2": "AU",
    "kind": "unesco"
  },
  {
    "id": "Q16147548",
    "title": "Bagrati Cathedral and Gelati Monastery",
    "lat": 42.26222,
    "lon": 42.71639,
    "iso2": "GE",
    "kind": "unesco"
  },
  {
    "id": "Q15991782",
    "title": "Tyne Cot Memorial",
    "lat": 50.88745,
    "lon": 3.00067,
    "iso2": "BE",
    "kind": "unesco"
  },
  {
    "id": "Q15830652",
    "title": "Old Town of Galle and its Fortifications",
    "lat": 6.02139,
    "lon": 80.21861,
    "iso2": "LK",
    "kind": "unesco"
  },
  {
    "id": "Q15813904",
    "title": "La Fortaleza and San Juan National Historic Site",
    "lat": 18.46389,
    "lon": -66.11917,
    "iso2": "US",
    "kind": "unesco"
  },
  {
    "id": "Q909755",
    "title": "Desembarco del Granma National Park",
    "lat": 19.88333,
    "lon": -77.63333,
    "iso2": "CU",
    "kind": "unesco"
  },
  {
    "id": "Q849318",
    "title": "Revillagigedo Islands",
    "lat": 18.82139,
    "lon": -112.76389,
    "iso2": "MX",
    "kind": "unesco"
  },
  {
    "id": "Q910189",
    "title": "Castillo de San Pedro de la Roca",
    "lat": 19.96871,
    "lon": -75.8703,
    "iso2": "CU",
    "kind": "unesco"
  },
  {
    "id": "Q15831671",
    "title": "Renaissance Monumental Ensembles of Úbeda and Baeza",
    "lat": 38.01131,
    "lon": -3.37122,
    "iso2": "ES",
    "kind": "unesco"
  },
  {
    "id": "Q853265",
    "title": "Casas Grandes",
    "lat": 30.37583,
    "lon": -107.95556,
    "iso2": "MX",
    "kind": "unesco"
  },
  {
    "id": "Q852546",
    "title": "Monarch Butterfly Biosphere Reserve",
    "lat": 19.60639,
    "lon": -100.24167,
    "iso2": "MX",
    "kind": "unesco"
  },
  {
    "id": "Q19387263",
    "title": "Røros Mining Town and the Circumference",
    "lat": 62.57389,
    "lon": 11.38556,
    "iso2": "NO",
    "kind": "unesco"
  },
  {
    "id": "Q16920958",
    "title": "Archaeological Areas of Pompei, Herculaneum and Torre Annunziata",
    "lat": 40.75,
    "lon": 14.48333,
    "iso2": "IT",
    "kind": "unesco"
  },
  {
    "id": "Q20895234",
    "title": "Hartmannswillerkopf National Monument",
    "lat": 47.85882,
    "lon": 7.15017,
    "iso2": "FR",
    "kind": "unesco"
  },
  {
    "id": "Q19366647",
    "title": "Weinberg am Klausberg",
    "lat": 52.40651,
    "lon": 13.01943,
    "iso2": "DE",
    "kind": "unesco"
  },
  {
    "id": "Q16912637",
    "title": "Cathedral of Notre-Dame, Former Abbey of Saint-Rémi and Palace of Tau, Reims",
    "lat": 49.25333,
    "lon": 4.03278,
    "iso2": "FR",
    "kind": "unesco"
  },
  {
    "id": "Q17132483",
    "title": "Historic City of Trogir",
    "lat": 43.5125,
    "lon": 16.25167,
    "iso2": "HR",
    "kind": "unesco"
  },
  {
    "id": "Q17277933",
    "title": "Silk Roads: the Routes Network of Chang'an-Tianshan Corridor",
    "lat": 34.3044,
    "lon": 108.8572,
    "iso2": "KZ",
    "kind": "unesco"
  },
  {
    "id": "Q19407145",
    "title": "Cuts National Cemetery",
    "lat": 49.52886,
    "lon": 3.09213,
    "iso2": "FR",
    "kind": "unesco"
  },
  {
    "id": "Q19852428",
    "title": "Tusi Sites",
    "lat": 28.99861,
    "lon": 109.96694,
    "iso2": "CN",
    "kind": "unesco"
  },
  {
    "id": "Q19407153",
    "title": "Saint-Benoît-la-Chipotte National Cemetery",
    "lat": 48.37009,
    "lon": 6.77441,
    "iso2": "FR",
    "kind": "unesco"
  },
  {
    "id": "Q16946829",
    "title": "Historical Monuments of Mtskheta",
    "lat": 41.84389,
    "lon": 44.71639,
    "iso2": "GE",
    "kind": "unesco"
  },
  {
    "id": "Q16886870",
    "title": "Archaeological Site of Panamá Viejo and Historic District of Panamá",
    "lat": 8.95111,
    "lon": -79.54056,
    "iso2": "PA",
    "kind": "unesco"
  },
  {
    "id": "Q19407143",
    "title": "Metz-Chambieres National Cemetery",
    "lat": 49.13415,
    "lon": 6.19403,
    "iso2": "FR",
    "kind": "unesco"
  },
  {
    "id": "Q17494587",
    "title": "Mount Hamiguitan Range Wildlife Sanctuary",
    "lat": 6.74,
    "lon": 126.182,
    "iso2": "PH",
    "kind": "unesco"
  },
  {
    "id": "Q18448486",
    "title": "Historic Centre of Rome, the Properties of the Holy See in that City Enjoying Extraterritorial Rights and San Paolo Fuori le Mura",
    "lat": 41.8928,
    "lon": 12.4866,
    "iso2": "IT",
    "kind": "unesco"
  },
  {
    "id": "Q17993813",
    "title": "Xinjiang Tianshan",
    "lat": 43,
    "lon": 82.3,
    "iso2": "CN",
    "kind": "unesco"
  },
  {
    "id": "Q16363487",
    "title": "Kyiv: Saint-Sophia Cathedral and Related Monastic Buildings, Kyiv-Pechersk Lavra",
    "lat": 50.45258,
    "lon": 30.51686,
    "iso2": "UA",
    "kind": "unesco"
  },
  {
    "id": "Q19801255",
    "title": "Cerny-en-Laonnois German War Cemetery",
    "lat": 49.44176,
    "lon": 3.66449,
    "iso2": "FR",
    "kind": "unesco"
  },
  {
    "id": "Q16942531",
    "title": "Victorian Gothic and Art Deco Ensembles of Mumbai",
    "lat": 18.92981,
    "lon": 72.83008,
    "iso2": "IN",
    "kind": "unesco"
  },
  {
    "id": "Q16963852",
    "title": "Dong Phayayen-Khao Yai Forest Complex",
    "lat": 14.33,
    "lon": 102.05,
    "iso2": "TH",
    "kind": "unesco"
  },
  {
    "id": "Q17296768",
    "title": "The Vineyard Landscape of Piedmont: Langhe-Roero and Monferrato",
    "lat": 44.65194,
    "lon": 7.99417,
    "iso2": "IT",
    "kind": "unesco"
  },
  {
    "id": "Q19605615",
    "title": "Makhonjwa Mountains",
    "lat": -33.4,
    "lon": 22,
    "iso2": "ZA",
    "kind": "unesco"
  },
  {
    "id": "Q16509773",
    "title": "Rancourt National Cemetery",
    "lat": 49.99793,
    "lon": 2.91111,
    "iso2": "FR",
    "kind": "unesco"
  },
  {
    "id": "Q16988075",
    "title": "Jewish Quarter and St Procopius' Basilica in Třebíč",
    "lat": 49.2172,
    "lon": 15.8789,
    "iso2": "CZ",
    "kind": "unesco"
  },
  {
    "id": "Q17132555",
    "title": "Ischigualasto / Talampaya Natural Parks",
    "lat": -29.8,
    "lon": -67.83333,
    "iso2": "AR",
    "kind": "unesco"
  },
  {
    "id": "Q20963672",
    "title": "Arab-Norman Palermo and the Cathedral Churches of Cefalú and Monreale",
    "lat": 38.11083,
    "lon": 13.35306,
    "iso2": "IT",
    "kind": "unesco"
  },
  {
    "id": "Q17132416",
    "title": "Historical Complex of Split with the Palace of Diocletian",
    "lat": 43.50833,
    "lon": 16.43889,
    "iso2": "HR",
    "kind": "unesco"
  },
  {
    "id": "Q18222581",
    "title": "College of the Company of Jesus",
    "lat": 14.55792,
    "lon": -90.73542,
    "iso2": "GT",
    "kind": "unesco"
  },
  {
    "id": "Q17132271",
    "title": "The Historic Centre (Chorá) with the Monastery of Saint-John the Theologian and the Cave of the Apocalypse on the Island of Pátmos",
    "lat": 37.3,
    "lon": 26.55,
    "iso2": "GR",
    "kind": "unesco"
  },
  {
    "id": "Q17634781",
    "title": "Bardejov Town Conservation Reserve",
    "lat": 49.29333,
    "lon": 21.27917,
    "iso2": "SK",
    "kind": "unesco"
  },
  {
    "id": "Q17255582",
    "title": "Samarkand – Crossroad of Cultures",
    "lat": 39.66861,
    "lon": 67,
    "iso2": "UZ",
    "kind": "unesco"
  },
  {
    "id": "Q20963673",
    "title": "Diyarbakır Fortress and Hevsel Gardens Cultural Landscape",
    "lat": 37.9031,
    "lon": 40.23931,
    "iso2": "TR",
    "kind": "unesco"
  },